[
{"time":1080,"day":2,"duration":75,"lat":51.5092341,"lng":-0.126136,"title":"West End Trafalgar","address":"The connection at St Martin's, 12 Adelaide St, (Big Red Door - No-one admitted after 18.10))","postcode":"WC2N 4HW","code":11764},
{"time":1170,"day":5,"duration":90,"lat":51.5106449,"lng":-0.126585,"title":"Charing Cross LGBT Newcomers","address":"Friends Meeting House, 8 Hop Gardens, St Martins Lane.","postcode":"WC2N 4EA","code":11762},
{"time":1140,"day":6,"duration":60,"lat":51.510872,"lng":-0.126789,"title":"Charing Cross","address":"Friends Meeting House, 8 Hop Gardens, St Martins Lane.","postcode":"WC2N 4EA","code":11766},
{"time":750,"day":4,"duration":60,"lat":51.5108721,"lng":-0.1267893,"title":"Charing Cross Lunchtime Step","address":"Friends Meeting House, Hop Gardens, St Martins Lane.","postcode":"WC2N 4EA","code":11760},
{"time":780,"day":5,"duration":60,"lat":51.5108721,"lng":-0.1267893,"title":"Charing Cross Reflections","address":"Friends Meeting House, 8 Hop Gardens, off St Martins Lane,","postcode":"WC2N 4EA","code":11761},
{"time":1140,"day":4,"duration":60,"lat":51.5115685,"lng":-0.1321074,"title":"West End Soho Glbt Recovery Topic","address":"31 Wardour St, Soho","postcode":"W1D 6QR","code":11653},
{"time":1125,"day":1,"duration":60,"lat":51.5115685,"lng":-0.1321074,"title":"West End Soho Wardour Street","address":"Upstairs, Turning Point, 31 Wardour St","postcode":"W1D 6QR","code":11641},
{"time":1110,"day":1,"duration":60,"lat":51.5124321,"lng":-0.1318976,"title":"West End Soho LGBT Step","address":"St Annes Church, 55 Dean St (between Old Compton St & Shaftesbury Ave).","postcode":"W1D 6AF","code":11755},
{"time":735,"day":4,"duration":60,"lat":51.5088711,"lng":-0.1366562,"title":"Piccadilly Lunch","address":"St James' Church, Meeting Room, 197 Piccadilly.","postcode":"W1J 9LL","code":11630},
{"time":900,"day":4,"duration":60,"lat":51.5088711,"lng":-0.1366562,"title":"Piccadilly: As Bill Sees It","address":"St James Church, Meeting Room, 197 Piccadilly,","postcode":"W1J 9LL","code":11631},
{"time":1080,"day":2,"duration":60,"lat":51.512415,"lng":-0.1321881,"title":"Soho Sober","address":"St Annes Church, 55 Dean St, (between Old Compton St &","postcode":"W1D 6AF","code":11632},
{"time":1160,"day":2,"duration":60,"lat":51.512415,"lng":-0.1321881,"title":"Soho Step","address":"Allen Room, 1st Floor, St Anne's Church, 55 Dean St","postcode":"W1D 6AF","code":11633},
{"time":1080,"day":3,"duration":60,"lat":51.512415,"lng":-0.1321881,"title":"Soho Sober","address":"St Annes Church, 55 Dean St.","postcode":"W1D 6AF","code":11634},
{"time":1125,"day":2,"duration":60,"lat":51.501001,"lng":-0.130911,"title":"Westminster Working With Others: Newcomers","address":"The Alcohol Service (CGL), 2-4 Old Queen St.","postcode":"SW1H 9HP","code":13590},
{"time":1065,"day":6,"duration":60,"lat":51.5145613,"lng":-0.1263641,"title":"Covent Garden Newcomers There Is A Solution","address":"Neal's Yard meeting rooms, (door to left of 14 Neal's Yard, downstairs) Covent Garden.","postcode":"WC2H 9DP","code":11763},
{"time":1140,"day":0,"duration":60,"lat":51.511351,"lng":-0.137679,"title":"West End Introduction to AA","address":"Bishop Challoner Rm, Our Lady of the Assumption & St Gregory RC Church, 24 Golden Square, Piccadilly Circus","postcode":"W1F 9JR","code":14117},
{"time":960,"day":0,"duration":90,"lat":51.5145239,"lng":-0.1319145,"title":"West End Live And Let Live LGBT","address":"NHS Building Soho Square, 1 Frith St","postcode":"W1D 3QS","code":11663},
{"time":720,"day":0,"duration":60,"lat":51.514973,"lng":-0.129836,"title":"Soho Spiritual Concepts LGBT & Friends","address":"Level One, 123 Charing Cross Rd.","postcode":"WC2H 0EW","code":13839},
{"time":780,"day":5,"duration":60,"lat":51.5149444,"lng":-0.1301585,"title":"Soho Early Days","address":"Soho Recovery Centre, 123 Charing Cross Road","postcode":"WC2H 0EW","code":13975},
{"time":540,"day":6,"duration":60,"lat":51.5149444,"lng":-0.1301585,"title":"Rise & Shine Women","address":"Soho Recovery Centre, 123 Charing Cross Road.","postcode":"WC2H 0EW","code":13880},
{"time":885,"day":0,"duration":75,"lat":51.5149444,"lng":-0.1301585,"title":"Los Amigos Spanish Speaking","address":"Soho Recovery Centre, 123 Charing Cross Road.","postcode":"WC2H 0EW","code":13881},
{"time":1170,"day":0,"duration":60,"lat":51.5149444,"lng":-0.1301585,"title":"A Bridge to Normal Living Women ","address":"Soho Recovery Centre, 123 Charing Cross Road.","postcode":"WC2H 0EW","code":13882},
{"time":630,"day":6,"duration":60,"lat":51.5149444,"lng":-0.1301585,"title":"LGBT Broad Highway","address":"Soho Recovery Centre, 123 Charing Cross Rd.","postcode":"WC2H 0EW","code":13892},
{"time":1080,"day":4,"duration":60,"lat":51.5149444,"lng":-0.1301585,"title":"Keep it Simple - Newcomers Focused","address":"123 Charing Cross Road.","postcode":"WC2H 0EW","code":13930},
{"time":1080,"day":2,"duration":60,"lat":51.5149444,"lng":-0.1301585,"title":"Soho Serenity","address":"Soho Recovery Centre, 123 Charing Cross Road.","postcode":"WC2H 0EW","code":13933},
{"time":780,"day":2,"duration":60,"lat":51.5149444,"lng":-0.1301585,"title":"Soho Just for Today","address":"Soho Recovery Centre, 123 Charing Cross Rd","postcode":"WC2H 0EW","code":13983},
{"time":1080,"day":6,"duration":90,"lat":51.5149444,"lng":-0.1301585,"title":"Soho Open Door Gay/Lesbian/Bisexual/Transgender","address":"1st Floor, 123 Charing Cross Road.","postcode":"WC2H 0EW","code":11418},
{"time":990,"day":1,"duration":60,"lat":51.5150362,"lng":-0.1301071,"title":"Shelter from the Storm","address":"Soho Recovery Centre, 123 Charing Cross Rd","postcode":"WC2H 0EW","code":14024},
{"time":450,"day":4,"duration":60,"lat":51.5150362,"lng":-0.1301071,"title":"Soho Morning Glow (Simple Kit of Spiritual Tools)","address":"Soho Recovery Centre, 123 Charing Cross Rd","postcode":"WC2H 0EW","code":13980},
{"time":630,"day":4,"duration":60,"lat":51.5150362,"lng":-0.1301071,"title":"Soho Brunch","address":"Soho Recovery Centre, 123 Charing Cross Rd","postcode":"WC2H 0EW","code":14058},
{"time":450,"day":1,"duration":45,"lat":51.5150362,"lng":-0.1301071,"title":"Soho Sunrise","address":"Soho Recovery Centre, 123 Charing Cross Rd.","postcode":"WC2H 0EW","code":13968},
{"time":450,"day":2,"duration":45,"lat":51.5150362,"lng":-0.1301071,"title":"Soho Sunrise","address":"Soho Recovery Centre, 123 Charing Cross Rd.","postcode":"WC2H 0EW","code":13969},
{"time":450,"day":3,"duration":45,"lat":51.5150362,"lng":-0.1301071,"title":"Soho Sunrise","address":"Soho Recovery Centre, 123 Charing Cross Rd.","postcode":"WC2H 0EW","code":13970},
{"time":990,"day":6,"duration":60,"lat":51.5150362,"lng":-0.1301071,"title":"Soho BME (Black & Minority Ethnic)","address":"Soho Recovery Centre, 123 Charing Cross Road.","postcode":"WC2H 0EW","code":13971},
{"time":1080,"day":5,"duration":60,"lat":51.515109,"lng":-0.130276,"title":"Rainbow Recovery LGBT Big Book","address":"Soho Recovery Centre, 123 Charing Cross Road.","postcode":"WC2H 0EW","code":13849},
{"time":450,"day":5,"duration":60,"lat":51.515109,"lng":-0.130276,"title":"Soho Rise & Shine Newcomers","address":"Soho Recovery Centre, 123 Charing Cross Road (1st floor mtg room, access via flight of stairs).","postcode":"WC2H 0EW","code":13850},
{"time":1080,"day":3,"duration":60,"lat":51.515109,"lng":-0.130276,"title":"Soho LGBTQ Heathens (Agnostic, Atheist & Freethinker)","address":"123 Charing Cross Road.","postcode":"WC2H 0EW","code":13855},
{"time":810,"day":0,"duration":60,"lat":51.515109,"lng":-0.130276,"title":"West End LGBTQQI+ Open: Beyond the Binary (Transgender Focus)","address":"Soho Recovery Centre, 1st Floor, 123 Charing Cross Rd.","postcode":"WC2H 0EW","code":13428},
{"time":1080,"day":1,"duration":60,"lat":51.515109,"lng":-0.130276,"title":"Bloomsbury How It Works","address":"123 Charing Cross Road, Soho.","postcode":"WC2H 0EW","code":11754},
{"time":780,"day":3,"duration":60,"lat":51.5153606,"lng":-0.1285509,"title":"Bloomsbury Friends Of Bill W ","address":"St Giles in the Fields Parish Church, 60 St Giles High St.","postcode":"WC2H 8LG","code":11756},
{"time":1140,"day":3,"duration":60,"lat":51.5153606,"lng":-0.1285509,"title":"Bloomsbury: Gay & Lesbian Step 11","address":"The Annexe, St Giles Church, 60 St Giles-in-the-Fields High St.","postcode":"WC2H 8LG","code":11757},
{"time":900,"day":5,"duration":60,"lat":51.5153606,"lng":-0.1285509,"title":"Bloomsbury: The Weekend Starts Here","address":"St Giles in the Field Parish Church, 60 St Giles High St.","postcode":"WC2H 8LG","code":11759},
{"time":1140,"day":1,"duration":60,"lat":51.4974694,"lng":-0.1299091,"title":"Victoria Big Book Step & Tradition","address":"The Abbey Centre, Garrett Anderson Rm, 34 Great Smith Street","postcode":"SW1P 3BU","code":12345},
{"time":450,"day":2,"duration":60,"lat":51.5172875,"lng":-0.1304033,"title":"Bloomsbury: Awakenings","address":"Study Room 1, YMCA, 112 Great Russell St.","postcode":"WC1B 3NQ","code":11749},
{"time":600,"day":6,"duration":60,"lat":51.5026632,"lng":-0.1088995,"title":"Southwark There is a Solution Big Book Study","address":"Doreen Ramsey Court, 106 The Cut","postcode":"SE1 8LN","code":14073},
{"time":1110,"day":4,"duration":60,"lat":51.5027503,"lng":-0.1088354,"title":"Southwark Blackfriars","address":"106 The Cut.","postcode":"SE1 8LN","code":11417},
{"time":1140,"day":5,"duration":60,"lat":51.4952598,"lng":-0.1356232,"title":"Victoria Meditation","address":"St Stephen's Church, Rochester Row (access via Rochester Street)","postcode":"SW1P 1LE","code":13575},
{"time":1110,"day":3,"duration":60,"lat":51.4950478,"lng":-0.134843,"title":"Westminster Caxton","address":"St Stephens Church, Rochester St, off Rochester Row.","postcode":"SW1P 2QQ","code":11511},
{"time":1140,"day":2,"duration":60,"lat":51.4950756,"lng":-0.1388612,"title":"Pimlico & Victoria Group","address":"Hinsley Room, Morpeth Terrace, (end of School Playground behind Westminster Cathedral). Rail & Tube: Victoria.","postcode":"SW1P 1QW","code":11508},
{"time":1110,"day":4,"duration":60,"lat":51.4956259,"lng":-0.1406684,"title":"Victoria Keys To The Kingdom","address":"Hinsley Room, Morpeth Terr, (next to Westminster Cathedral,","postcode":"SW1P 1EW","code":11509},
{"time":1170,"day":2,"duration":75,"lat":51.5033,"lng":-0.1058,"title":"Southwark There is a Solution Newcomer - Focused Speaker Mtg","address":"Lewisham Southwark College, 25 The Cut.","postcode":"SE1 8LS","code":12918},
{"time":1125,"day":3,"duration":60,"lat":51.521058,"lng":-0.1356543,"title":"West End Pass It On Newcomers","address":"Health Promotion Rm, Soho Centre for Health & Care, 1 Frith St","postcode":"W1D 3HZ","code":11625},
{"time":1200,"day":5,"duration":90,"lat":51.509125,"lng":-0.150999,"title":"Mayfair","address":"Grosvenor Chapel, 24 South Audley St. (entrance down right","postcode":"W1K 2PA","code":11629},
{"time":1110,"day":4,"duration":60,"lat":51.52026,"lng":-0.138656,"title":"West End LGBT Newcomers","address":"Fitzrovia Centre, 2 Foley St.","postcode":"W1W 6DL","code":11652},
{"time":1200,"day":5,"duration":60,"lat":51.4959897,"lng":-0.1127768,"title":"Lambeth","address":"Lambeth Mission Hall, 3-5 Lambeth Rd. (Enter by the back entrance)","postcode":"SE1 7DQ","code":11415},
{"time":1110,"day":3,"duration":60,"lat":51.5200581,"lng":-0.1400771,"title":"West End Venice Beach","address":"St Charles Borromeo Church, 8 Ogle St. Tube: Oxford Circus","postcode":"W1W 6HS","code":11635},
{"time":1110,"day":1,"duration":60,"lat":51.5200581,"lng":-0.1400771,"title":"West End Into Action","address":"St Charles Borromeo RC Church, 8 Ogle St.","postcode":"W1W 6HS","code":11640},
{"time":1110,"day":5,"duration":60,"lat":51.5200581,"lng":-0.1400771,"title":"Fitzrovia Step & Tradition","address":"St Charles Borromeo Church, 8 Ogle St. Tube: Oxford Circus or","postcode":"W1W 6HS","code":11657},
{"time":990,"day":6,"duration":60,"lat":51.5200581,"lng":-0.1400771,"title":"West End: Watch Your Step Big Book Way","address":"St Charles Borromeo Church, 8 Ogle St, Nr Post Office Tower.","postcode":"W1W 6HS","code":11662},
{"time":1185,"day":0,"duration":75,"lat":51.5212732,"lng":-0.1175985,"title":"Holborn Overseas","address":"Bedford House Community Centre, 35 Emerald St.","postcode":"WC1N 3QW","code":11752},
{"time":1185,"day":2,"duration":60,"lat":51.513529,"lng":-0.105212,"title":"City Sick Puppies Big Book Study","address":"St Bride Foundation, 14 Bride Lane, Blackfriars Rm.","postcode":"EC4Y 8EE","code":14025},
{"time":1140,"day":0,"duration":60,"lat":51.4921544,"lng":-0.1361135,"title":"Victoria: Gordon Hospital","address":"Gordon Hospital, 6th Floor, Bloomburg St, off Vauxhall","postcode":"SW1V 2RH","code":11510},
{"time":1110,"day":1,"duration":60,"lat":51.4981518,"lng":-0.1491379,"title":"Belgravia The Early Monday Men","address":"St Peter's Church, The Meeting Room, ground floor, via the","postcode":"SW1W 9AL","code":11476},
{"time":1200,"day":1,"duration":60,"lat":51.4981518,"lng":-0.1491379,"title":"Belgravia Later Monday Men","address":"St Peter's Church, The Meeting Room, ground floor, via the","postcode":"SW1W 9AL","code":11477},
{"time":1050,"day":2,"duration":60,"lat":51.4981518,"lng":-0.1491379,"title":"Chelsea Homeward Bound","address":"St Peter's Church Hall, 119 Eaton Square, Ground floor","postcode":"SW1W 9AL","code":11478},
{"time":1140,"day":2,"duration":60,"lat":51.4981518,"lng":-0.1491379,"title":"Belgravia Eaton Square Women","address":"St Peter's Church, The Meeting Room, ground floor, via the","postcode":"SW1W 9AL","code":11479},
{"time":780,"day":3,"duration":60,"lat":51.4981518,"lng":-0.1491379,"title":"Chelsea Eaton Square Lunch","address":"St Peter's Church, The Meeting Room, ground floor, via the","postcode":"SW1W 9AL","code":11480},
{"time":1080,"day":4,"duration":60,"lat":51.4981518,"lng":-0.1491379,"title":"Belgravia Step/tradition","address":"St Peter's Church, The Meeting Room, ground floor, via the","postcode":"SW1W 9AL","code":11481},
{"time":1200,"day":4,"duration":60,"lat":51.4981518,"lng":-0.1491379,"title":"Belgravia After Eight","address":"St Peter's Church, The Meeting Room, ground floor, via the","postcode":"SW1W 9AL","code":11482},
{"time":720,"day":5,"duration":60,"lat":51.4981518,"lng":-0.1491379,"title":"Belgravia High Noon","address":"St Peter's Church, The Meeting Room, ground floor, via the","postcode":"SW1W 9AL","code":11483},
{"time":1110,"day":5,"duration":60,"lat":51.4981518,"lng":-0.1491379,"title":"Belgravia Eaton Square","address":"St Peter's Church, The Meeting Room, ground floor, via the","postcode":"SW1W 9AL","code":11484},
{"time":540,"day":6,"duration":60,"lat":51.4981518,"lng":-0.1491379,"title":"Belgravia Morning Meditation","address":"St Peter's Church, The Meeting Room, ground floor, via the","postcode":"SW1W 9AL","code":11485},
{"time":1020,"day":6,"duration":60,"lat":51.4981518,"lng":-0.1491379,"title":"Belgravia Step & Tradition","address":"St Peter's Church, The Meeting Room, ground floor, via main gate, 119 Eaton Square.","postcode":"SW1W 9AL","code":11486},
{"time":1140,"day":6,"duration":60,"lat":51.4981518,"lng":-0.1491379,"title":"Belgravia Eaton Square","address":"St Peter's Church, The Meeting Room, ground floor, via the","postcode":"SW1W 9AL","code":11487},
{"time":1260,"day":6,"duration":60,"lat":51.4981518,"lng":-0.1491379,"title":"Belgravia After Nine","address":"St Peter's Church, The Meeting Room, ground floor, via the","postcode":"SW1W 9AL","code":11488},
{"time":1110,"day":0,"duration":60,"lat":51.4981518,"lng":-0.1491379,"title":"Belgravia More Will Be Revealed","address":"St Peter's Church, The Meeting Room, ground floor, via the","postcode":"SW1W 9AL","code":11489},
{"time":660,"day":1,"duration":60,"lat":51.5172935,"lng":-0.1512015,"title":"West End Morning As Bill Sees It","address":"The Parlour, Methodist Church, corner Hinde St/Thayer St","postcode":"W1U 2QJ","code":11637},
{"time":780,"day":1,"duration":60,"lat":51.5172935,"lng":-0.1512015,"title":"West End Just For Today Lunch","address":"Methodist Church, Hinde St, corner of Thayer St","postcode":"W1U 2QJ","code":11638},
{"time":780,"day":2,"duration":60,"lat":51.5172935,"lng":-0.1512015,"title":"West End: Hinde Street Lunch 'As Bill Sees It'","address":"Methodist Church, corner Hinde St and Thayer St.","postcode":"W1U 2QJ","code":11644},
{"time":1140,"day":5,"duration":60,"lat":51.5172935,"lng":-0.1512015,"title":"West End Just For Today Candlelight","address":"Main Hall, Methodist Church, Hinde St, corner Thayer St,","postcode":"W1U 2QJ","code":11659},
{"time":900,"day":6,"duration":60,"lat":51.5172935,"lng":-0.1512015,"title":"West End: Step","address":"Methodist Church, Hinde St, corner Thayer St.","postcode":"W1U 2QJ","code":11661},
{"time":780,"day":5,"duration":60,"lat":51.5172935,"lng":-0.1512015,"title":"West End Living Sober","address":"Methodist Church, Hinde St, corner Thayer St","postcode":"W1U 2QJ","code":11655},
{"time":780,"day":5,"duration":60,"lat":51.5172935,"lng":-0.1512015,"title":"West End Lunch","address":"Methodist Church, Hinde St, corner  Thayer St. (Small room).","postcode":"W1U 2QJ","code":11656},
{"time":1200,"day":2,"duration":60,"lat":51.5172935,"lng":-0.1512015,"title":"London West End Hinde St Late","address":"Methodist Church, corner Hinde St & Thayer St.","postcode":"W1U 2QJ","code":11646},
{"time":780,"day":3,"duration":60,"lat":51.5172935,"lng":-0.1512015,"title":"West End Hinde Street","address":"Methodist Church, corner of Hinde St & Thayer St.","postcode":"W1U 2QJ","code":11647},
{"time":1170,"day":3,"duration":60,"lat":51.5172935,"lng":-0.1512015,"title":"West End Young People","address":"Hinde Street Methodist Church, The Parlour, 19 Thayer St","postcode":"W1U 2QJ","code":11649},
{"time":450,"day":4,"duration":60,"lat":51.5172935,"lng":-0.1512015,"title":"West End Keep It Simple","address":"Room 3, Hinde Street Methodist Church, corner of Hinde St & Thayer St. (19 Thayer St entrance).","postcode":"W1U 2QJ","code":11650},
{"time":780,"day":4,"duration":60,"lat":51.5172935,"lng":-0.1512015,"title":"West End: Lunch","address":"Methodist Church, 19 Thayer St, corner Hinde St.","postcode":"W1U 2QJ","code":11651},
{"time":1110,"day":1,"duration":60,"lat":51.517294,"lng":-0.151202,"title":"West End Newcomers","address":"The Parlour, Methodist Church, corner of Hinde St & Thayer St.","postcode":"W1U 2QJ","code":12660},
{"time":1140,"day":5,"duration":75,"lat":51.5228074,"lng":-0.141742,"title":"West End They Stopped In Time Young People","address":"All Soul's Clubhouse,141 Cleveland St.  Tube: Great Portland St, Warren St.","postcode":"W1T 6QG","code":11658},
{"time":1170,"day":0,"duration":90,"lat":51.522959,"lng":-0.142092,"title":"Fitzrovia 1st Step","address":"Greenwell Street (large metal gates - next to the pub).","postcode":"W1T 6QN","code":11628},
{"time":450,"day":1,"duration":60,"lat":51.5228047,"lng":-0.1439484,"title":"West End Good Morning London","address":"Marylebone Room, International Students House, 229 Great","postcode":"W1W 5PN","code":11636},
{"time":510,"day":0,"duration":60,"lat":51.489962,"lng":-0.139371,"title":"Pimlico: Promises","address":"Youth & Social Club, basement of Malcolmson House,","postcode":"SW1V 3RR","code":11506},
{"time":450,"day":1,"duration":60,"lat":51.4899617,"lng":-0.1393712,"title":"Pimlico: Breakfast With Bill","address":"Youth & Social Club, basement of Malcolmson House,","postcode":"SW1V 3RR","code":11497},
{"time":450,"day":2,"duration":60,"lat":51.4899617,"lng":-0.1393712,"title":"Pimlico: Newcomers","address":"Youth & Social Club, basement of Malcolmson House,","postcode":"SW1V 3RR","code":11498},
{"time":450,"day":3,"duration":60,"lat":51.4899617,"lng":-0.1393712,"title":"Pimlico Rise & Shine Early Risers","address":"Youth & Social Club, Basement, Malcolmson House,Tachbrook Est","postcode":"SW1V 3RR","code":11500},
{"time":450,"day":4,"duration":60,"lat":51.4899617,"lng":-0.1393712,"title":"Pimlico Just For Today","address":"Youth & Social Club, basement of Malcolmson House, Tachbrook Estate ","postcode":"SW1V 3RR","code":11502},
{"time":1140,"day":4,"duration":90,"lat":51.492748,"lng":-0.108575,"title":"Lambeth Women In Recovery","address":"Lambeth Community Care Centre, Monkton St","postcode":"SE11 4TX","code":11424},
{"time":1200,"day":1,"duration":60,"lat":51.4927476,"lng":-0.1085746,"title":"Kennington: Step","address":"Community Care Centre, Monkton St, behind The Ship Pub,","postcode":"SE11 4TX","code":11423},
{"time":1140,"day":3,"duration":60,"lat":51.5013346,"lng":-0.157092,"title":"Knightsbridge Kinnerton St","address":"St Paul's Hall, 77-79 Kinnerton St","postcode":"SW1X 8ED","code":11494},
{"time":450,"day":5,"duration":60,"lat":51.4869033,"lng":-0.1327555,"title":"Pimlico: Early Morning Step","address":"Youth & Social Club, basement of Malcolmson House,","postcode":"SW1V 3RR","code":11503},
{"time":735,"day":5,"duration":60,"lat":51.4869033,"lng":-0.1327555,"title":"Pimlico Lunch Open Discussion","address":"Youth & Social Club, basement of Malcolmson House,","postcode":"SW1V 3RR","code":11504},
{"time":780,"day":2,"duration":60,"lat":51.486903,"lng":-0.132756,"title":"Pimlico Lunchtime Keep It Simple","address":"Youth & Social Club, basement of Malcolmson House, Tachbrook Estate.","postcode":"SW1V 3RR","code":11499},
{"time":1155,"day":2,"duration":60,"lat":51.486903,"lng":-0.132756,"title":"Pimlico Recovery","address":"Youth & Social Club, basement of Malcolmson House, ","postcode":"SW1V 3RR","code":11507},
{"time":780,"day":2,"duration":60,"lat":51.5151374,"lng":-0.0962468,"title":"City  Lunch","address":"4 Foster Lane, blue door next to St Vedast Church","postcode":"EC2V 6HH","code":11269},
{"time":450,"day":3,"duration":60,"lat":51.5151374,"lng":-0.0962468,"title":"City Step & Tradition","address":"St Vedast, 4 Foster Lane","postcode":"EC2V 6HH","code":11270},
{"time":780,"day":4,"duration":60,"lat":51.5151374,"lng":-0.0962468,"title":"City: Lunch","address":"4 Foster Lane, blue door next to St Vedast Church.","postcode":"EC2V 6HH","code":11271},
{"time":1080,"day":4,"duration":60,"lat":51.5233525,"lng":-0.1054327,"title":"Clerkenwell Step 1","address":"St James's Church, Clerkenwell Close, (downstairs)","postcode":"EC1R 0EA","code":11266},
{"time":600,"day":6,"duration":60,"lat":51.528419,"lng":-0.131461,"title":"London Euston: Gratitude in Action Big Book Study","address":"Church House, Lancing St, (off Eversholt St by Euston Stn)","postcode":"NW1 1NA","code":12625},
{"time":1080,"day":2,"duration":45,"lat":51.528419,"lng":-0.131461,"title":"Euston Quick Step & Tradition","address":"Church House, 1 Lancing St, off Eversholt St ","postcode":"NW1 1NA","code":12544},
{"time":1080,"day":5,"duration":60,"lat":51.5284191,"lng":-0.1314611,"title":"Euston We Have A Solution","address":"Church House St Pancras Church, 1 Lancing St, (off Eversholt St)","postcode":"NW1 1NA","code":11370},
{"time":630,"day":6,"duration":60,"lat":51.488238,"lng":-0.143187,"title":"Pimlico Mid Morning","address":"Holy Apostles Presbytery, 47 Cumberland St.","postcode":"SW1V 4LY","code":13187},
{"time":720,"day":6,"duration":60,"lat":51.4882379,"lng":-0.1431872,"title":"London Pimlico","address":"Holy Apostles Presbytery, 47 Cumberland St Tube: Pimlico. Bus: 24.","postcode":"SW1V 4LY","code":11505},
{"time":750,"day":3,"duration":60,"lat":51.511284,"lng":-0.093756,"title":"London City Promises","address":"St James Garlickhythe, Garlick Hill. ","postcode":"EC4V 2AL","code":12623},
{"time":750,"day":5,"duration":60,"lat":51.5111514,"lng":-0.0936896,"title":"City Promises","address":"St James Garlickhythe, Garlick Hill","postcode":"EC4V 2AL","code":14030},
{"time":750,"day":1,"duration":45,"lat":51.5111514,"lng":-0.0936896,"title":"City Espresso","address":"St James Garlickhythe, Garlick Hill","postcode":"EC4V 2AF","code":13990},
{"time":780,"day":2,"duration":60,"lat":51.5111514,"lng":-0.0936896,"title":"City Lunchtime","address":"St James Garlickhythe, Garlick Hill","postcode":"EC4V 2AF","code":14042},
{"time":1080,"day":0,"duration":60,"lat":51.5111514,"lng":-0.0936896,"title":"City Sunday Punch","address":"St James's Garlickhythe, Doby Court","postcode":"EC4V 2AF","code":14045},
{"time":1080,"day":3,"duration":60,"lat":51.5111514,"lng":-0.0936896,"title":"City Survivors Discussion","address":"St James Garlickhythe, Garlick Hill (enter via Doby Court off Skinner Lane) ","postcode":"EC4V 2AF","code":11279},
{"time":1140,"day":2,"duration":60,"lat":51.513949,"lng":-0.093962,"title":"City Serenity","address":"St Mary-Le-Bow, Cheapside.","postcode":"EC2V 6AU","code":11287},
{"time":1170,"day":2,"duration":75,"lat":51.5155711,"lng":-0.1617637,"title":"West End Marble Arch Men's Step","address":"33 Seymour Place","postcode":"W1H 5AU","code":11645},
{"time":780,"day":2,"duration":60,"lat":51.52984,"lng":-0.122479,"title":"Kings Cross Reflections","address":"Methodist Church, Crestfield St, (opp Kings Cross Stn, next to Northumberland Hotel).","postcode":"WC1H 8AT","code":11750},
{"time":1170,"day":1,"duration":75,"lat":51.5298404,"lng":-0.1224786,"title":"Kings Cross As Bill Sees It","address":"Methodist Church, Crestfield St, (opp Kings Cross Stn/next","postcode":"WC1H 8AT","code":11753},
{"time":960,"day":4,"duration":60,"lat":51.529986,"lng":-0.120872,"title":"Islington","address":"ISATS, 309 Grays Inn Rd.","postcode":"WC1X 8QS","code":13184},
{"time":930,"day":1,"duration":60,"lat":51.530022,"lng":-0.120914,"title":"Islington Illness In Recovery","address":"ISATS, 309 Gray's Inn Road.","postcode":"WC1X 8QS","code":13383},
{"time":840,"day":4,"duration":60,"lat":51.4965875,"lng":-0.1623114,"title":"Knightsbridge: Women's Tea Time Discussion","address":"St Columba's Church of Scotland, Pont St","postcode":"SW1X 0BD","code":11495},
{"time":690,"day":5,"duration":60,"lat":51.4965875,"lng":-0.1623114,"title":"Knightsbridge: Just For Today","address":"St Columba Church of Scotland, Pont St, bottom of Beauchamp","postcode":"SW1X 0BD","code":11496},
{"time":600,"day":1,"duration":60,"lat":51.4965875,"lng":-0.1623114,"title":"Knightsbridge Women's Step Study","address":"St Columba Church of Scotland, Pont St, bottom of","postcode":"SW1X 0BD","code":11490},
{"time":1080,"day":1,"duration":60,"lat":51.4965875,"lng":-0.1623114,"title":"Knightsbridge Pont Street Beginners","address":"St Columba's Church of Scotland, (small committee room on","postcode":"SW1X 0BD","code":11491},
{"time":1080,"day":1,"duration":60,"lat":51.4965875,"lng":-0.1623114,"title":"Knightsbridge Pont Street ","address":"St Columba Church of Scotland, Pont St, (large room), bottom of Beauchamp Place.","postcode":"SW1X 0BD","code":11492},
{"time":1170,"day":1,"duration":60,"lat":51.4965875,"lng":-0.1623114,"title":"Knightsbridge Pont Street Discussion","address":"St Columba Church of Scotland, Pont St, bottom of","postcode":"SW1X 0BD","code":11493},
{"time":1140,"day":5,"duration":60,"lat":51.483047,"lng":-0.123854,"title":"Vauxhall Beginners Big Book Study","address":"St Annes & All Saints Church, Miles St, South Lambeth Rd. (5 mins walk from Vauxhall Stn & Bus Depot).","postcode":"SW8 1RL","code":12680},
{"time":1140,"day":3,"duration":60,"lat":51.5115062,"lng":-0.0886159,"title":"City Steps 3, 7 & 11 Meditation","address":"St Mary Abchurch, Abchurch Lane (off King William St).","postcode":"EC4N 7BA","code":11288},
{"time":1110,"day":5,"duration":60,"lat":51.5115062,"lng":-0.0886159,"title":"City  Let The Weekend Begin","address":"St Mary Abchurch, Abchurch Lane (off King William St).","postcode":"EC4N 7BA","code":11290},
{"time":1140,"day":1,"duration":60,"lat":51.5115062,"lng":-0.0886159,"title":"City Steps","address":"St Mary Abchurch, Abchurch Lane, (off King William St).","postcode":"EC4N 7BA","code":11286},
{"time":1170,"day":3,"duration":60,"lat":51.4821075,"lng":-0.1190821,"title":"Vauxhall By The Book Speakers","address":"Ashmole Community Hall, 2 Meadow Rd","postcode":"SW8 1QB","code":11618},
{"time":1170,"day":1,"duration":90,"lat":51.5178369,"lng":-0.1657659,"title":"West End Living Sober","address":"Advent Centre, 39 Brendon St, (off Crawford Place)","postcode":"W1H 5JE","code":11642},
{"time":1170,"day":4,"duration":60,"lat":51.5179193,"lng":-0.1658635,"title":"West End First London","address":"Advent Centre, 39 Brendon St (off Crawford Place).","postcode":"W1H 5HD","code":11654},
{"time":360,"day":4,"duration":60,"lat":51.5125148,"lng":-0.0864984,"title":"Early Step & Tradition","address":"St Edmund the King Church, Lombard St. (side entrance in","postcode":"EC3V 9EA","code":11280},
{"time":450,"day":4,"duration":60,"lat":51.5125148,"lng":-0.0864984,"title":"City Starters","address":"St Edmund the King Church, Lombard St. (side entrance in","postcode":"EC3V 9EA","code":11281},
{"time":360,"day":5,"duration":60,"lat":51.5125148,"lng":-0.0864984,"title":"City  Big Book Story","address":"St Edmund the King Church, Lombard St. (side entrance in","postcode":"EC3V 9EA","code":11282},
{"time":450,"day":5,"duration":60,"lat":51.5125148,"lng":-0.0864984,"title":"City Breakfast","address":"St Edmund the King Church, Lombard St  (side entrance in","postcode":"EC3V 9EA","code":11283},
{"time":360,"day":2,"duration":60,"lat":51.5125148,"lng":-0.0864984,"title":"City  Early Big Book","address":"St Edmund the King Church, Lombard St. (side entrance in","postcode":"EC3V 9EA","code":11275},
{"time":450,"day":2,"duration":60,"lat":51.5125148,"lng":-0.0864984,"title":"City Breakfast: 3-7-11 Step","address":"St Edmund the King Church, Lombard St. (side entrance in","postcode":"EC3V 9EA","code":11276},
{"time":360,"day":1,"duration":60,"lat":51.5125148,"lng":-0.0864984,"title":"City At Six Am","address":"St Edmund the King Church, Lombard St. (side entrance in","postcode":"EC3V 9EA","code":11272},
{"time":450,"day":1,"duration":60,"lat":51.5125148,"lng":-0.0864984,"title":"City Breakfast","address":"St Edmund the King Church, Lombard St. (side entrance in","postcode":"EC3V 9EA","code":11273},
{"time":1170,"day":2,"duration":75,"lat":51.5155089,"lng":-0.1681366,"title":"Hyde Park LGBTQI","address":"St John the Evangelist Church Hall, Hyde Park Crescent (near Marble Arch).","postcode":"W2 2QD","code":11718},
{"time":1080,"day":6,"duration":120,"lat":51.489615,"lng":-0.096025,"title":"Los Amigos (Spanish Speaking)","address":"York Mansions, 1-10 Browning St","postcode":"SE17 1RL","code":13819},
{"time":1170,"day":0,"duration":60,"lat":51.4931795,"lng":-0.091385,"title":"Walworth: Balfour Street","address":"67 Balfour St.","postcode":"SE17 1PL","code":11439},
{"time":900,"day":6,"duration":90,"lat":51.5004503,"lng":-0.1695329,"title":"Knightsbridge (1st Russian Speaking)","address":"Russian Orthodox Church, 67 Ennismore Gdns","postcode":"SW7 1NH","code":11615},
{"time":750,"day":5,"duration":60,"lat":51.4926836,"lng":-0.0913049,"title":"Walworth Balfour","address":"67 Balfour St, off New Kent Rd, Elephant & Castle","postcode":"SE17 1PB","code":11437},
{"time":1320,"day":5,"duration":60,"lat":51.4850768,"lng":-0.1018921,"title":"Walworth Late Night","address":"St Paul's Church, Lorrimore Sq","postcode":"SE17 3QU","code":11438},
{"time":1125,"day":4,"duration":90,"lat":51.5221196,"lng":-0.1652793,"title":"Marylebone Step & Meditation","address":"St Marylebone School, 64 Marylebone High Street, London. ","postcode":"W1U 5BA","code":11372},
{"time":1170,"day":3,"duration":90,"lat":51.4814575,"lng":-0.1122102,"title":"Oval One Day At A Time (topic/discussion)","address":"St Mark's Church, Kennington Park Rd, (opp Oval Tube Stn).","postcode":"SE11 4PW","code":11425},
{"time":1140,"day":5,"duration":60,"lat":51.5015101,"lng":-0.083876,"title":"London Bridge Friday Nights!  What Now? Newcomers","address":"Bermondsey Village Hall, Kirby Grove","postcode":"SE1 3TD","code":11416},
{"time":1140,"day":2,"duration":60,"lat":51.5335915,"lng":-0.1119141,"title":"Islington: Angel Speaker","address":"St Silas Church, Pentonville, Penton St, (big church at the","postcode":"N1 9UL","code":11301},
{"time":1095,"day":5,"duration":60,"lat":51.5335915,"lng":-0.1119141,"title":"Islington Womens Recovery Hour","address":"St Silas Church, Penton St, off Barnsbury Rd","postcode":"N1 9UL","code":11309},
{"time":630,"day":6,"duration":60,"lat":51.5335915,"lng":-0.1119141,"title":"Angel: Into Action","address":"St Silas Church, Penton St Jct with Chapel Market.Tube: Angel","postcode":"N1 9UL","code":11293},
{"time":1080,"day":0,"duration":60,"lat":51.5107645,"lng":-0.0828392,"title":"City Meditation on Sunday","address":"St Margaret Pattens Church, corner Rood Lane/Eastcheap St","postcode":"EC3M 1HS","code":11285},
{"time":1140,"day":0,"duration":60,"lat":51.5323096,"lng":-0.1043544,"title":"Angel: Language Of The Heart","address":"The Crypt, St John the Evangelist Church, Duncan Terr","postcode":"N1 8BZ","code":11295},
{"time":1200,"day":5,"duration":60,"lat":51.5243229,"lng":-0.1664999,"title":"Marylebone Discussion","address":"Gallery Room, 1st Floor, St Paul's Centre, Broadley Terrace,","postcode":"NW1 6NJ","code":11373},
{"time":1170,"day":3,"duration":90,"lat":51.5243229,"lng":-0.1664999,"title":"Marylebone Big Book ","address":"Gallery Room, 1st Floor, St Paul's Centre, Broadley Terrace (enter via back door on Broadley Terrace). ","postcode":"NW1 6NJ","code":12339},
{"time":660,"day":6,"duration":90,"lat":51.5279465,"lng":-0.0925985,"title":"Old Street: Road to Recovery","address":"Betty Brunker Hall, Gambier House, Mora St, (Community Hall behind small park).","postcode":"EC1V 8EH","code":11267},
{"time":1260,"day":0,"duration":60,"lat":51.5279465,"lng":-0.0925985,"title":"Islington Old Street Fellowship","address":"Betty Brunker Hall, Gambier House, Mora St, (entrance on","postcode":"EC1V 8EH","code":11268},
{"time":750,"day":1,"duration":90,"lat":51.4861695,"lng":-0.0933054,"title":"Walworth Lunch Discussion","address":"Yellow Room, Inspire in the Crypt, St Peter's Church, Liverpool Grove","postcode":"SE17 2HH","code":11435},
{"time":1200,"day":2,"duration":60,"lat":51.4990319,"lng":-0.0808103,"title":"Bermondsey","address":"St Mary Magdalene Church, 193 Bermondsey St","postcode":"SE1 3UW","code":11413},
{"time":1020,"day":0,"duration":60,"lat":51.485875,"lng":-0.163318,"title":"Chelsea Just For Today Gay & Lesbian","address":"The Vestry, Christchurch, Caversham Street.","postcode":"SW3 4AH","code":11590},
{"time":1155,"day":3,"duration":60,"lat":51.485933,"lng":-0.163546,"title":"Chelsea BYOBB (Bring Your Own Big Book) Study","address":"Christ Church Vestry, Caversham St.","postcode":"SW3 4AS","code":13435},
{"time":1290,"day":5,"duration":60,"lat":51.5342046,"lng":-0.1030933,"title":"Islington Angel Late Night As Bill Sees It","address":"Basement of St John the Evangelist Church, 39 Duncan Terr","postcode":"N1 8AL","code":11311},
{"time":1140,"day":6,"duration":75,"lat":51.5342046,"lng":-0.1030933,"title":"Islington Newcomers","address":"Basement of St John the Evangelist Church, 39 Duncan Terrace.","postcode":"N1 8AL","code":11314},
{"time":720,"day":0,"duration":60,"lat":51.5342046,"lng":-0.1030933,"title":"Angel Big Book Study","address":"Basement, 39 Duncan Terrace, Islington","postcode":"N1 8AL","code":11316},
{"time":780,"day":3,"duration":60,"lat":51.5134,"lng":-0.079006,"title":"City Womens Step Study","address":"St Katherine Cree Guild Church, 86 Leadenhall St. (Front","postcode":"EC3A 3BP","code":11278},
{"time":1110,"day":0,"duration":90,"lat":51.489726,"lng":-0.169199,"title":"Chelsea Men's Step","address":"St Luke's Parish Hall, St Luke's St, Chelsea, London","postcode":"SW3 6NH","code":11591},
{"time":1140,"day":1,"duration":60,"lat":51.490548,"lng":-0.085426,"title":"Walworth Young at Heart Big Book Study","address":"Pembroke House, 80 Tatum St.","postcode":"SE17 1QR","code":13259},
{"time":780,"day":1,"duration":60,"lat":51.4878349,"lng":-0.1673015,"title":"Chelsea: Easy Does It Newcomers","address":"Chelsea Methodist Church, 155a Kings Rd, Chelsea, London","postcode":"SW3 5TX","code":11578},
{"time":1170,"day":3,"duration":60,"lat":51.534069,"lng":-0.100821,"title":"Islington How It Works/Jak to Dziala (Polish)","address":"Polish Church, 2 Devonia Rd.","postcode":"N1 8JJ","code":13105},
{"time":705,"day":6,"duration":60,"lat":51.486309,"lng":-0.165735,"title":"London Chelsea There Is A Solution","address":"Hall of Remembrance, Flood St.","postcode":"SW3 5SY","code":11586},
{"time":570,"day":0,"duration":60,"lat":51.4863087,"lng":-0.1657351,"title":"Chelsea Living In The Solution","address":"Hall of Remembrance, Flood St, Chelsea.","postcode":"SW3 5SY","code":11587},
{"time":660,"day":0,"duration":75,"lat":51.4863087,"lng":-0.1657351,"title":"Chelsea Sunday Best","address":"Hall of Remembrance, Flood St, Chelsea","postcode":"SW3 5SY","code":11588},
{"time":1185,"day":0,"duration":60,"lat":51.4863087,"lng":-0.1657351,"title":"Chelsea Lest We Forget","address":"Basement, Hall of Remembrance, Flood St, Chelsea","postcode":"SW3 5SY","code":11592},
{"time":450,"day":3,"duration":60,"lat":51.4860199,"lng":-0.1658241,"title":"Chelsea Attitude Adjustment","address":"The Hut, Alpha Place (off Flood St)","postcode":"SW3 5SZ","code":11581},
{"time":450,"day":1,"duration":60,"lat":51.4860199,"lng":-0.1658241,"title":"Chelsea Step Into The Day","address":"The Hut, Alpha Place","postcode":"SW3 5SZ","code":11577},
{"time":540,"day":0,"duration":60,"lat":51.5383283,"lng":-0.1410483,"title":"Camden Town Gratitude","address":"Upper Room, St Michael's Church Community Centre,","postcode":"NW1 0ND","code":11367},
{"time":1140,"day":3,"duration":75,"lat":51.48571,"lng":-0.166551,"title":"Chelsea Joys Of Recovery Discussion","address":"The Hut (upstairs room), Alpha Place, off Flood Street, Chelsea.","postcode":"SW3 5SZ","code":11583},
{"time":1140,"day":1,"duration":60,"lat":51.4755154,"lng":-0.1378307,"title":"Vauxhall Beginners Step & Tradition","address":"St Annes & All Saints Church, Miles St, South Lambeth Rd, (5 min walk from Vauxhall Stn & Bus Depot).","postcode":"SW8 1RL","code":11617},
{"time":1140,"day":5,"duration":60,"lat":51.485985,"lng":-0.16727,"title":"London Chelsea Promises","address":"The Hut, Alpha Place (off Flood St).","postcode":"SW3 5SZ","code":11585},
{"time":1155,"day":3,"duration":60,"lat":51.485985,"lng":-0.16727,"title":"London Chelsea","address":"The Hut, Alpha Place (off Flood Street). ","postcode":"SW3 5SZ","code":11582},
{"time":1170,"day":2,"duration":60,"lat":51.485985,"lng":-0.16727,"title":"London Chelsea","address":"The Hut, Alpha Place (off Flood Street).","postcode":"SW3 5SZ","code":11580},
{"time":1140,"day":4,"duration":60,"lat":51.485985,"lng":-0.16727,"title":"Chelsea Step & Tradition","address":"The Hut, Alpha Place (off Flood St).  ","postcode":"SW3 5SZ","code":11514},
{"time":540,"day":0,"duration":60,"lat":51.485985,"lng":-0.16727,"title":"Chelsea Sober on Sunday","address":"The Hut, Alpha Place (off Flood St).","postcode":"SW3 5SZ","code":12601},
{"time":900,"day":0,"duration":75,"lat":51.485985,"lng":-0.16727,"title":"London Chelsea Joys of Recovery Beginners","address":"The Hut, Alpha Place (off Flood Street).","postcode":"SW3 5SZ","code":12326},
{"time":750,"day":5,"duration":60,"lat":51.51406,"lng":-0.076489,"title":"City Lunch","address":"St Botolph's Church, Aldgate High Street.","postcode":"EC3N 1AB","code":11284},
{"time":750,"day":3,"duration":75,"lat":51.51406,"lng":-0.076489,"title":"City Lunch","address":"St Botolph's Church, Aldgate High Street.","postcode":"EC3N 1AB","code":11277},
{"time":750,"day":1,"duration":60,"lat":51.51406,"lng":-0.076489,"title":"City Lunch","address":"St Botolph's Church, Aldgate High Street.","postcode":"EC3N 1AB","code":11274},
{"time":1170,"day":4,"duration":60,"lat":51.4774291,"lng":-0.1494585,"title":"Battersea Turning Point","address":"All Saints Vicarage, 100 Prince of Wales Drive, (30 metres","postcode":"SW11 4BD","code":11525},
{"time":1020,"day":6,"duration":60,"lat":51.4774291,"lng":-0.1494585,"title":"Battersea","address":"All Saints Church, 100 Prince of Wales Drive.","postcode":"SW11 4BD","code":11526},
{"time":1140,"day":2,"duration":75,"lat":51.5371325,"lng":-0.1039809,"title":"Angel We Agnostics Step & Tradition","address":"1A Providence Court, Providence Place, (next to Screen on the Green Cinema)","postcode":"N1 0RN","code":11291},
{"time":1140,"day":4,"duration":70,"lat":51.5371325,"lng":-0.1039809,"title":"Islington Agnostics & Athiests","address":"1A Providence Court, Providence Place, (next to Screen on the Green Cinema)","postcode":"N1 0RN","code":12321},
{"time":1110,"day":3,"duration":75,"lat":51.537133,"lng":-0.103981,"title":"Islington Design for Living","address":"Providence Court, Providence Place (behind 'Screen on the Green' Cinema), off Upper St.","postcode":"N1 0RN","code":13348},
{"time":930,"day":6,"duration":90,"lat":51.537094,"lng":-0.103795,"title":"Islington Lesbian","address":"1A Providence Court, Providence Place.","postcode":"N1 0RN","code":13402},
{"time":780,"day":6,"duration":60,"lat":51.539824,"lng":-0.141809,"title":"Camden St Michaels","address":"St Michaels Church, Camden Rd","postcode":"NW1 9LQ","code":11366},
{"time":780,"day":2,"duration":60,"lat":51.5400345,"lng":-0.1144162,"title":"Islington: Lunchtime","address":"St Andrews Church, Thornhill Sq, Barnsbury, by Bridgeman Rd.","postcode":"N1 1BQ","code":11299},
{"time":750,"day":3,"duration":60,"lat":51.5400345,"lng":-0.1144162,"title":"Islington: As Bill Sees It","address":"St Andrews Church, Thornhill Square, Barnsbury,","postcode":"N1 1BQ","code":11303},
{"time":1200,"day":4,"duration":60,"lat":51.4805957,"lng":-0.0939555,"title":"Camberwell","address":"Cambridge House, 131 Camberwell Rd.","postcode":"SE5 0HF","code":11464},
{"time":840,"day":6,"duration":60,"lat":51.4805957,"lng":-0.0939555,"title":"Walworth Afternoon","address":"Cambridge House, 131 Camberwell Rd, (use entrance in Addington Sq)","postcode":"SE5 0HF","code":11467},
{"time":780,"day":0,"duration":90,"lat":51.4806608,"lng":-0.0937314,"title":"Sunday Lunch - Food for Thought","address":"Cambridge House, corner of Walworth Rd, Addington Sq","postcode":"SE5 0HF","code":14122},
{"time":1020,"day":6,"duration":60,"lat":51.5378673,"lng":-0.1522857,"title":"Primrose Hill: Step & Tradition","address":"St Marks Church Crypt, St Marks Sq","postcode":"NW1 7TN","code":11374},
{"time":1140,"day":5,"duration":60,"lat":51.538374,"lng":-0.10181,"title":"Islington Friendship On Friday","address":"The Crypt, Wilson Room, St Mary's Church, Upper St","postcode":"N1 2TX","code":11310},
{"time":630,"day":2,"duration":60,"lat":51.538374,"lng":-0.10181,"title":"Islington Parent & Child","address":"St Mary's Church, Upper St. ","postcode":"N1 2TX","code":13112},
{"time":1140,"day":5,"duration":60,"lat":51.538374,"lng":-0.10181,"title":"Islington: Honesty in Islington Open Beginners","address":"The Crypt, Room 2, St Mary's Church, Upper St. ","postcode":"N1 2TX","code":12595},
{"time":600,"day":6,"duration":60,"lat":51.5383744,"lng":-0.1018096,"title":"Islington: St Mary's Reflections","address":"Wilson Rm, St Mary's Church, Upper St","postcode":"N1 2TX","code":11312},
{"time":1320,"day":6,"duration":60,"lat":51.5383744,"lng":-0.1018096,"title":"Islington St Marys Late Night","address":"The Crypt of St Marys Church, Upper St, (opp Post Office).","postcode":"N1 2TX","code":11315},
{"time":1140,"day":4,"duration":60,"lat":51.5383744,"lng":-0.1018096,"title":"Islington Angel","address":"Crypt Rm 1, St Mary's Church, Upper St","postcode":"N1 2TX","code":11306},
{"time":1230,"day":4,"duration":60,"lat":51.5383744,"lng":-0.1018096,"title":"Islington Angel Step 11 Spiritual Awakening","address":"Wilson Rm, St Mary's Church, Upper St, Angel","postcode":"N1 2TX","code":11307},
{"time":1170,"day":2,"duration":60,"lat":51.5383744,"lng":-0.1018096,"title":"Islington Lesbian/Gay/Transgender/Bisexual Reflections","address":"St Marys Church, Upper St, (to gain access press buzzer for Wilson Rm at left-hand entrance. Disabled access via lift).","postcode":"N1 2TX","code":11302},
{"time":1095,"day":1,"duration":45,"lat":51.5383744,"lng":-0.1018096,"title":"Islington Angel: Quick Step","address":"St Mary's Church, Upper St, Islington","postcode":"N1 2TX","code":11297},
{"time":690,"day":0,"duration":75,"lat":51.472454,"lng":-0.123842,"title":"Stockwell (Ex Oval)","address":"Stockwell Community Resource Centre, 1 Studley Rd, (behind Stockwell Tube)","postcode":"SW4 6RA","code":12546},
{"time":660,"day":6,"duration":90,"lat":51.538297,"lng":-0.098946,"title":"Angel Step & Tradition","address":"Popham Community Centre, Popham Street.","postcode":"N1 8QW","code":11294},
{"time":720,"day":6,"duration":90,"lat":51.4714948,"lng":-0.1330535,"title":"Clapham Union Grove","address":"Christ Church, 39 Union Grove, off Wandsworth Rd","postcode":"SW8 2QJ","code":11616},
{"time":1200,"day":3,"duration":60,"lat":51.516996,"lng":-0.071854,"title":"Aldgate Dellow Centre","address":"Dellow Centre, 82 Wentworth St","postcode":"E1 7SA","code":11209},
{"time":1200,"day":4,"duration":60,"lat":51.5169961,"lng":-0.071854,"title":"Aldgate Brick Lane","address":"The Dellow Centre, 82 Wentworth St","postcode":"E1 7SA","code":11210},
{"time":1200,"day":5,"duration":60,"lat":51.5169961,"lng":-0.071854,"title":"Aldgate Nadzieja (hope) Polish Spoken","address":"The Dellow Centre, 82 Wentworth St","postcode":"E1 7SA","code":11211},
{"time":690,"day":0,"duration":60,"lat":51.5169961,"lng":-0.071854,"title":"Aldgate: Dellow Centre","address":"Dellow Centre, 82 Wentworth St, off Brick Lane.","postcode":"E1 7SA","code":11213},
{"time":1080,"day":3,"duration":60,"lat":51.5392322,"lng":-0.1003607,"title":"Islington: 1-2-3 Newcomer & Beginners","address":"Baptist Church, 16-18 Cross St. Entrance at Cross Street Front.","postcode":"N1 2BG","code":11304},
{"time":1200,"day":4,"duration":60,"lat":51.5263085,"lng":-0.0776452,"title":"Shoreditch","address":"Shoreditch Church (aka St Leonards Church),","postcode":"E1 6JN","code":11214},
{"time":1170,"day":2,"duration":60,"lat":51.5427734,"lng":-0.145208,"title":"Camden Town","address":"Arlington Conference Centre, 220 Arlington Rd","postcode":"NW1 7HE","code":11365},
{"time":1080,"day":4,"duration":60,"lat":51.543299,"lng":-0.142634,"title":"Kentish Town Love & Light","address":"Clarence Hall, Hawley Rd, Bradfield Estate (opp hairdressers and Hawley School).","postcode":"NW1 8RN","code":13803},
{"time":1170,"day":2,"duration":60,"lat":51.4980562,"lng":-0.1861827,"title":"Kensington Shy Sharers","address":"Christ Church, bottom of Victoria Rd. Access by Kynance","postcode":"W8 5RQ","code":11743},
{"time":1140,"day":1,"duration":60,"lat":51.4897838,"lng":-0.1839038,"title":"Earls Court: Step & Tradition","address":"St Marys Church, The Boltons","postcode":"SW10 9TB","code":11521},
{"time":1080,"day":6,"duration":60,"lat":51.524611,"lng":-0.070565,"title":"Brick Lane Big Book Study","address":"St Matthias School, 47 Granby St (west side of Chilton St)","postcode":"E2 6DR","code":11212},
{"time":1170,"day":4,"duration":60,"lat":51.511606,"lng":-0.191294,"title":"Bayswater There is a Solution Big Book","address":"St Matthews Church, St Petersburg Place, Bayswater","postcode":"W2 4LA","code":12700},
{"time":780,"day":3,"duration":60,"lat":51.4673937,"lng":-0.1182006,"title":"Brixton Lunchtime","address":"Aurora Project Lambeth, 140 Stockwell Rd (the door is on Cambermere Rd)","postcode":"SW9 9TQ","code":11619},
{"time":1170,"day":1,"duration":60,"lat":51.536097,"lng":-0.081775,"title":"Hoxton Trew Recovery","address":"RAPT, 30 Whitmore Rd.","postcode":"N1 5QA","code":13047},
{"time":1170,"day":5,"duration":60,"lat":51.536097,"lng":-0.081775,"title":"Hoxton Big Book Step","address":"RAPT, 30 Whitmore Rd.","postcode":"N1 5QA","code":13325},
{"time":510,"day":6,"duration":60,"lat":51.4842605,"lng":-0.1814587,"title":"Chelsea Early Morning","address":"The Boardroom, Lower Ground Floor, Chelsea & Westminster","postcode":"SW10 9NH","code":11516},
{"time":1020,"day":0,"duration":60,"lat":51.4842605,"lng":-0.1814587,"title":"Chelsea Steps 3 & 11","address":"Boardroom, Lower Ground Floor, Chelsea & Westminster Hospital, 369 Fulham Rd, Chelsea, London","postcode":"SW10 9NH","code":11520},
{"time":1170,"day":3,"duration":60,"lat":51.5419473,"lng":-0.1635708,"title":"Swiss Cottage","address":"St Mary the Virgin Church, corner of King Henry's Rd and","postcode":"NW3 3DJ","code":11398},
{"time":1140,"day":5,"duration":60,"lat":51.4815907,"lng":-0.1797791,"title":"Chelsea Step","address":"The Chelsea Theatre, Worlds End Place, Kings Rd, Chelsea, London","postcode":"SW10 0DR","code":11515},
{"time":1050,"day":3,"duration":60,"lat":51.4815907,"lng":-0.1797791,"title":"Chelsea The Happy Hour","address":"The Chelsea Theatre, 7 Worlds End Place, Kings Rd, Chelsea","postcode":"SW10 0DR","code":11512},
{"time":1110,"day":4,"duration":60,"lat":51.4815907,"lng":-0.1797791,"title":"Chelsea: Keep It Simple","address":"Chelsea Theatre, Worlds End Place, Kings Rd, Chelsea, London","postcode":"SW10 0DR","code":11513},
{"time":1110,"day":2,"duration":60,"lat":51.5185245,"lng":-0.0636457,"title":"Whitechapel How it Works","address":"Reset Tower Hamlets, 183 Whitechapel Rd","postcode":"E1 1DN","code":11217},
{"time":1170,"day":1,"duration":90,"lat":51.484553,"lng":-0.1840828,"title":"Fulham Road Newcomers","address":"The Boltons Nursery School, Servite Hall, 262B Fulham Rd","postcode":"SW10 9EL","code":11522},
{"time":570,"day":6,"duration":60,"lat":51.481597,"lng":-0.180773,"title":"Chelsea: Beginners (formerly Park Walk)","address":"St John's Church, 1st Floor, World's End Piazza, 465 Kings Rd.","postcode":"SW10 0LU","code":11517},
{"time":690,"day":6,"duration":60,"lat":51.481597,"lng":-0.180773,"title":"Chelsea: World's End 11.30 (formerly Park Walk)","address":"St John's Church, 1st Floor, World's End Piazza, 465 Kings Rd.","postcode":"SW10 0LU","code":11519},
{"time":1200,"day":1,"duration":75,"lat":51.4737242,"lng":-0.0872581,"title":"Camberwell Big Book","address":"St Giles' Centre, opp St Giles' Church, 81 Camberwell, Church St.","postcode":"SE5 8RB","code":12324},
{"time":1170,"day":6,"duration":75,"lat":51.4737242,"lng":-0.0872581,"title":"Camberwell Turning Point","address":"St Giles' Centre, opp St Giles' Church,  81 Camberwell Church St.","postcode":"SE5 8RB","code":12325},
{"time":1170,"day":3,"duration":90,"lat":51.498801,"lng":-0.194841,"title":"Kensington Step & Tradition Beginner","address":"Kensington United Reformed Church, Allen St ","postcode":"W8 6BL","code":11744},
{"time":1110,"day":1,"duration":60,"lat":51.5481411,"lng":-0.1068695,"title":"Holloway Road To Recovery","address":"St Mary Magdalene Church, Holloway Rd, opposite","postcode":"N7 8LT","code":11357},
{"time":1140,"day":2,"duration":60,"lat":51.5481411,"lng":-0.1068695,"title":"Holloway Beginners","address":"St Mary Magdalene CofE Church, Holloway Rd. (5-10 mins walk","postcode":"N7 8LT","code":11359},
{"time":1170,"day":1,"duration":90,"lat":51.498631,"lng":-0.195202,"title":"Kensington Road To Recovery As Bill Sees It","address":"Kensington United Reformed Church, Allen St, Kensington","postcode":"W8 6BL","code":11742},
{"time":1110,"day":5,"duration":60,"lat":51.5181223,"lng":-0.1945958,"title":"Bayswater Permanent Revolution","address":"North Room, St Stephen's Church, St Stephen's Cres,","postcode":"W2 5QT","code":11717},
{"time":1155,"day":5,"duration":60,"lat":51.4868819,"lng":-0.1887291,"title":"South Kensington: Courage To Change","address":"St Marys Church, The Boltons.","postcode":"SW10 9BT","code":11523},
{"time":1200,"day":4,"duration":60,"lat":51.4638029,"lng":-0.1351095,"title":"Clapham Manor Street","address":"St Peters Church, Clapham Manor St, Clapham High St.","postcode":"SW4 6BX","code":11596},
{"time":1170,"day":1,"duration":60,"lat":51.4638029,"lng":-0.1351095,"title":"Clapham","address":"St Peter's Church, Clapham Manor St","postcode":"SW4 6BX","code":11594},
{"time":1110,"day":0,"duration":60,"lat":51.516481,"lng":-0.1978028,"title":"Notting Hill","address":"St Mary of the Angels Church, Sutherland Place (entrance in","postcode":"W2 5DJ","code":11720},
{"time":1110,"day":3,"duration":60,"lat":51.5516211,"lng":-0.1372033,"title":"Kentish Town: Newcomers","address":"The Catholic Church Hall, Falkland Rd.","postcode":"NW5 2XT","code":11405},
{"time":1140,"day":3,"duration":60,"lat":51.468739,"lng":-0.091441,"title":"Denmark Hill Women in Recovery","address":"Maudsley Hospital (Outpatients), Denmark Hill.","postcode":"SE5 8AZ","code":13546},
{"time":1140,"day":2,"duration":60,"lat":51.4687385,"lng":-0.0914405,"title":"Denmark Hill: Living Sober","address":"Main Reception, Out Patients,Maudsley Hospital, Denmark Hill.","postcode":"SE5 8AZ","code":11466},
{"time":810,"day":3,"duration":60,"lat":51.462923,"lng":-0.138649,"title":"Clapham Lunch As Bill Sees It","address":"Trinity House Clapham, 31-33 Bromells Rd. Access via Venn St, 100m from Clapham Common Tube, 30m from Clapham Picture House Cinema.","postcode":"SW4 0BN","code":11595},
{"time":780,"day":1,"duration":60,"lat":51.4884503,"lng":-0.1933196,"title":"Earls Court Lunchtime","address":"Response Bookshop, 300 Old Brompton Rd (opp Cemetery).","postcode":"SW5 9JF","code":11740},
{"time":780,"day":4,"duration":60,"lat":51.4884503,"lng":-0.1933196,"title":"Earls Court Lunchtime ","address":"Response Bookshop, 300 Old Brompton Rd (opp Cemetery).","postcode":"SW5 9JF","code":11741},
{"time":1200,"day":3,"duration":60,"lat":51.4884929,"lng":-0.1934762,"title":"Earls Court: Gay & Lesbian","address":"Reponse Bookshop, 300 Old Brompton Rd, opposite Cemetary.","postcode":"SW5 9JF","code":11601},
{"time":1050,"day":6,"duration":60,"lat":51.4884929,"lng":-0.1934762,"title":"Earls Court Saturday Matinee","address":"300 Old Brompton Rd (Response Book Shop). Bus: 74,C1,C3.","postcode":"SW5 9JF","code":11603},
{"time":1080,"day":0,"duration":60,"lat":51.4884929,"lng":-0.1934762,"title":"Earls Court Living Sober","address":"The Response Bookshop, 300 Old Brompton Rd.","postcode":"SW5 9JF","code":11604},
{"time":720,"day":0,"duration":60,"lat":51.5524141,"lng":-0.1293962,"title":"Holloway Hilldrop As Bill Sees It","address":"Hilldrop Community Centre, Hilldrop Rd","postcode":"N7 0JE","code":11361},
{"time":1170,"day":4,"duration":75,"lat":51.506523,"lng":-0.201078,"title":"Notting Hill Men's Step & Meditation","address":"St George's Church, Aubrey Walk","postcode":"W8 7JG","code":11676},
{"time":1170,"day":5,"duration":75,"lat":51.5119511,"lng":-0.2008783,"title":"Notting Hill A Vision For You","address":"59a Portobello Rd, (upstairs above Charlie's Caf). Tube: Notting Hill Gate.","postcode":"W11 3DB","code":11677},
{"time":1170,"day":3,"duration":60,"lat":51.5119511,"lng":-0.2008783,"title":"Notting Hill Beginners Chips","address":"One Floor Above Charlie's Caf, St Peter's Hall, 59A Portobello Rd.","postcode":"W11 3DB","code":11672},
{"time":750,"day":2,"duration":60,"lat":51.5119511,"lng":-0.2008783,"title":"Portobello Lunchtime","address":"One Floor Above Farm Girl Caf, 59A Portobello Rd","postcode":"W11 3DB","code":11679},
{"time":660,"day":0,"duration":60,"lat":51.5119511,"lng":-0.2008783,"title":"Kensington: First Step","address":"Charlie's Caf, (formerly Lazy Daisy), 59a Portobello Rd","postcode":"W11 3DB","code":11668},
{"time":1200,"day":1,"duration":60,"lat":51.5119511,"lng":-0.2008783,"title":"Notting Hill How It Works Newcomers Chips","address":"59A Portobello Rd, (thro green door, one floor above Charlies Caf - formerly Lazy Daisy).","postcode":"W11 3DB","code":11670},
{"time":1140,"day":4,"duration":60,"lat":51.5435303,"lng":-0.172809,"title":"Swiss Cottage Recovery Hour","address":"Rm 3, New Swiss Cottage Community Centre, Winchester Rd.","postcode":"NW3 3NR","code":11399},
{"time":1080,"day":4,"duration":60,"lat":51.550751,"lng":-0.103631,"title":"Highbury Fields As Bill Sees It","address":"Highbury Roundhouse, Ronald's Road.","postcode":"N5 1XB","code":11317},
{"time":1140,"day":2,"duration":60,"lat":51.5260249,"lng":-0.1956528,"title":"Maida Vale: Womens Reflections","address":"St Peters Church, corner Elgin Ave/Chippenham Rd","postcode":"W9 2DB","code":11747},
{"time":540,"day":6,"duration":60,"lat":51.5503761,"lng":-0.1574475,"title":"Belsize Park: Beginners","address":"Blackfriar's Hall, St Dominic's Priory, Southampton Rd.","postcode":"NW5 4LB","code":11402},
{"time":540,"day":6,"duration":60,"lat":51.5503761,"lng":-0.1574475,"title":"Belsize Park: Step","address":"Blackfriar's Hall, St Dominic's Priory, Southampton Rd.","postcode":"NW5 4LB","code":11403},
{"time":750,"day":3,"duration":60,"lat":51.5167097,"lng":-0.2015699,"title":"Notting Hill Newcomers","address":"The Tabernacle, 34-35 Powis Square, off Portobello Rd. ","postcode":"W11 2AY","code":11671},
{"time":750,"day":1,"duration":60,"lat":51.5167097,"lng":-0.2015699,"title":"Notting Hill Lunchtime There Is A Solution","address":"The Tabernacle, 34-35 Powis Sq. Tube:Ladbroke Grove/Westbourne Park ","postcode":"W11 2AY","code":11669},
{"time":750,"day":4,"duration":60,"lat":51.5167097,"lng":-0.2015699,"title":"Notting Hill Gate Tabernacle Meditation","address":"The Tabernacle, 35 Powis Sq","postcode":"W11 2AY","code":11673},
{"time":750,"day":6,"duration":60,"lat":51.5167097,"lng":-0.2015699,"title":"Notting Hill","address":"The Tabernacle, Powis Sq. Tube: Ladbroke Grove/Westbourne Park","postcode":"W11 2AY","code":11678},
{"time":660,"day":6,"duration":60,"lat":51.51671,"lng":-0.20157,"title":"Notting Hill Step into the Solution","address":"The Tabernacle, Powis Sq, Notting Hill. ","postcode":"W11 2AY","code":12948},
{"time":1140,"day":3,"duration":60,"lat":51.51671,"lng":-0.20157,"title":"Notting Hill Principals in Application","address":"Tabernacle, 35 Powis Square.","postcode":"W11 2AY","code":13104},
{"time":1140,"day":1,"duration":60,"lat":51.525387,"lng":-0.197403,"title":"Maida Vale: Bill & Bob's Excellent Adventure","address":"Meeting Room, St Peters Church, corner of Elgin Ave/","postcode":"W9 2DB","code":11746},
{"time":1200,"day":1,"duration":60,"lat":51.4801316,"lng":-0.0661652,"title":"Peckham As Bill Sees It","address":"Friary Church Hall, Bird in Bush Rd. (entrance in Friary Rd).","postcode":"SE15 1RH","code":11432},
{"time":1140,"day":3,"duration":60,"lat":51.4906983,"lng":-0.2000585,"title":"Earls Court One Hour Step","address":"St Cuthbert's Centre, 51 Philbeach Gdns. ","postcode":"SW5 9EB","code":12331},
{"time":1140,"day":1,"duration":60,"lat":51.5330574,"lng":-0.0626109,"title":"Bethnal Green","address":"United Reformed Church, Pott St","postcode":"E2 0EF","code":11247},
{"time":1170,"day":4,"duration":60,"lat":51.5167062,"lng":-0.2036888,"title":"Notting Hill How's Your Head?","address":"All Saints Church Hall, entrance Clydesdale Rd,","postcode":"W11 1JE","code":11675},
{"time":450,"day":4,"duration":60,"lat":51.5289278,"lng":-0.0573527,"title":"Bethnal Green Step By Step","address":"Kedlestone Walk Community Centre, Holly Bush Gardens","postcode":"E2 9RP","code":14057},
{"time":450,"day":2,"duration":60,"lat":51.52892,"lng":-0.0573,"title":"Bethnal Green Morning Reflections","address":"Kedlestone Walk Community Centre, Holly Bush Gardens.","postcode":"E2 9RP","code":13551},
{"time":1080,"day":5,"duration":60,"lat":51.547312,"lng":-0.082152,"title":"Islington Feelings","address":"Chorley Church, King Henry's Walk (entrance in laneway beside 9 King Henry's Walk)","postcode":"N1 4NX","code":11308},
{"time":750,"day":4,"duration":60,"lat":51.5163208,"lng":-0.2055344,"title":"Notting Hill Portobello Newcomers","address":"Salvation Army, 205 Portobello Rd, corner Blenheim Cres. Bus: 452, 52 or Ladbroke Grove.  Tube: Ladbroke Grove.","postcode":"W11 1LU","code":11674},
{"time":1140,"day":3,"duration":60,"lat":51.4806023,"lng":-0.1949546,"title":"Fulham Broadway","address":"Fulham Broadway Methodist Church, 452 Fulham Rd","postcode":"SW6 1BY","code":11608},
{"time":1020,"day":0,"duration":60,"lat":51.5394784,"lng":-0.1887037,"title":"Kilburn: Afternoon","address":"Abbey Community Centre, 222c Belsize Rd.","postcode":"NW6 4DJ","code":11409},
{"time":1110,"day":3,"duration":75,"lat":51.5276591,"lng":-0.0548387,"title":"Bethnal Green 12 X 12 Discussion","address":"St John's Church Hall, Bethnal Green, opp tube stn side","postcode":"E2 9PA","code":11248},
{"time":600,"day":6,"duration":60,"lat":51.5276591,"lng":-0.0548387,"title":"Bethnal Green Morning","address":"St John's Church Hall, Bethnal Green, Roman Rd (next to Bethnal Green Tube Stn).","postcode":"E2 9PA","code":11250},
{"time":1170,"day":2,"duration":60,"lat":51.4620304,"lng":-0.1612382,"title":"Battersea Beginners","address":"St Barnabas Church, corner Lavender Gdns/Clapham Common North Side (entrance in Lavender Gdns SW11 1DL)","postcode":"SW11 1DL","code":11524},
{"time":570,"day":6,"duration":60,"lat":51.4992113,"lng":-0.2069125,"title":"Kensington Morning","address":"Crypt, St Barnabas Church, Addison Rd, off Kensington High St","postcode":"W14 8LH","code":11716},
{"time":1110,"day":2,"duration":60,"lat":51.5536595,"lng":-0.1586707,"title":"Gospel Oak Acceptance","address":"Gospel Oak Methodist Church, Agincourt Rd.","postcode":"NW3 2NT","code":12333},
{"time":1110,"day":1,"duration":60,"lat":51.5536595,"lng":-0.1586707,"title":"Gospel Oak: Promises","address":"Gospel Oak Methodist Church, Agincourt Rd.","postcode":"NW3 2NT","code":11383},
{"time":1110,"day":5,"duration":60,"lat":51.5536595,"lng":-0.1586707,"title":"Gospel Oak: Step","address":"Gospel Oak Methodist Church, Agincourt Rd.","postcode":"NW3 2NT","code":11385},
{"time":600,"day":6,"duration":60,"lat":51.5536595,"lng":-0.1586707,"title":"Gospel Oak: There Is A Solution","address":"Gospel Oak Methodist Church, Agincourt Rd.","postcode":"NW3 2NT","code":11386},
{"time":1140,"day":0,"duration":60,"lat":51.5333928,"lng":-0.0587248,"title":"Hackney: Lithuanian Speaking (velyku Rytas)","address":"Lithuanian St Casimirs Church, 21 The Oval, Hackney Rd.","postcode":"E2 9DT","code":11251},
{"time":1170,"day":5,"duration":60,"lat":51.4614462,"lng":-0.1606859,"title":"Battersea","address":"St Barnabas Church, Clapham Common, Northside (entrance in","postcode":"SW4 9SW","code":11593},
{"time":1200,"day":6,"duration":90,"lat":51.5407909,"lng":-0.1886805,"title":"Kilburn Abbey Road As Bill Sees It","address":"St Mary's Church, (side entrance), 134A Abbey Rd","postcode":"NW6 4SN","code":11408},
{"time":1140,"day":4,"duration":60,"lat":51.470118,"lng":-0.072391,"title":"Peckham Rye Steps to Recovery","address":"St James' Catholic Church Hall, 45 Elm Grove.","postcode":"SE15 5DD","code":13841},
{"time":1080,"day":6,"duration":70,"lat":51.529974,"lng":-0.054005,"title":"Bethnal Green Atheists & Agnostics Meditation","address":"Quaker Social Action Meeting House, 17 Old Ford Rd ","postcode":"E2 9PJ","code":12617},
{"time":1200,"day":1,"duration":60,"lat":51.5555702,"lng":-0.096391,"title":"Highbury Barn","address":"Nottingham Hall, rear of St Joan of Arc Church, entrance in","postcode":"N5 2QN","code":11356},
{"time":1140,"day":5,"duration":60,"lat":51.456149,"lng":-0.110304,"title":"Women's Hour","address":"The Effraspace, 21 Effra Parade.","postcode":"SW2 1PX","code":13671},
{"time":1200,"day":5,"duration":60,"lat":51.4735129,"lng":-0.0628884,"title":"1st Peckham","address":"Methodist Church, Woods Rd (off Queens Rd).","postcode":"SE15 2PX","code":11434},
{"time":840,"day":6,"duration":60,"lat":51.537952,"lng":-0.057875,"title":"Hackney Crossroads","address":"2 Westgate Street.","postcode":"E8 3RN","code":13648},
{"time":1200,"day":0,"duration":60,"lat":51.454877,"lng":-0.141547,"title":"Clapham Reflections","address":"Church of Holy Spirit, 60 Hambalt Rd.","postcode":"SW4 9EH","code":11597},
{"time":1200,"day":1,"duration":60,"lat":51.5325743,"lng":-0.2036342,"title":"Queens Park","address":"St Lukes Church, Fernhead Rd","postcode":"W9 3EH","code":11748},
{"time":780,"day":4,"duration":60,"lat":51.549162,"lng":-0.073466,"title":"Hackney Reflections","address":"St Mark's Church, Community Hall, Colverstone Cres.","postcode":"E8 2LT","code":11305},
{"time":990,"day":2,"duration":60,"lat":51.549162,"lng":-0.073466,"title":"Hackney Meditation","address":"St Mark's Church, Community Hall, Colverstone Cres.","postcode":"E8 2LT","code":11300},
{"time":990,"day":1,"duration":60,"lat":51.549162,"lng":-0.073466,"title":"Hackney Reflections","address":"St Mark's Church, Community Hall, Colverstone Cres.","postcode":"E8 2LT","code":11296},
{"time":1140,"day":5,"duration":60,"lat":51.532454,"lng":-0.050626,"title":"Bethnal Green How It Works Newcomers","address":"Bethnal Green Methodist Church, Approach Rd","postcode":"E2 9JP","code":11249},
{"time":600,"day":3,"duration":60,"lat":51.4806314,"lng":-0.2046417,"title":"Fulham Just for Today","address":"Fulham Baptist Church, 118 Dawes Rd","postcode":"SW6 7EG","code":11607},
{"time":1140,"day":2,"duration":60,"lat":51.506993,"lng":-0.215988,"title":"Notting Hill Young Person's Step & Tradition","address":"Edward Woods Community Centre, 60-70 Norland Rd.","postcode":"W11 4TX","code":13500},
{"time":1200,"day":3,"duration":60,"lat":51.562647,"lng":-0.131631,"title":"Holloway","address":"St John the Evangelist Church, Upper Holloway, (opp The","postcode":"N19 5RR","code":12335},
{"time":1200,"day":3,"duration":60,"lat":51.4931566,"lng":-0.2138054,"title":"Hammersmith 1st Step","address":"10-12 Edith Rd, off Hammersmith Rd. Tube: Hammersmith/","postcode":"W14 9BA","code":11715},
{"time":600,"day":0,"duration":90,"lat":51.536653,"lng":-0.051687,"title":"Hackney Crossroads","address":"Victoria Park Community Centre, 5 Gore Road.","postcode":"E9 7HR","code":11263},
{"time":900,"day":0,"duration":60,"lat":51.5245068,"lng":-0.0426476,"title":"Stepney Mile End Hospital","address":"Mile End Hospital, Burdett Centre, Ground Flr, next to","postcode":"E1 4DG","code":11215},
{"time":1210,"day":2,"duration":60,"lat":51.555396,"lng":-0.1736895,"title":"Hampstead Hour","address":"Rona Hart Dance School, Rosslyn Hill, Hampstead, (enter via","postcode":"NW3 1NG","code":11390},
{"time":1170,"day":2,"duration":60,"lat":51.5213327,"lng":-0.2151681,"title":"North Kensington","address":"St Pius X RC Church, 79 St Charles Square, (east side, opp","postcode":"W10 6EB","code":11667},
{"time":1170,"day":3,"duration":60,"lat":51.5442798,"lng":-0.1962576,"title":"Kilburn Pass It On Step","address":"Kingsgate Community Centre, Kingsgate Rd","postcode":"NW6 2JH","code":12336},
{"time":840,"day":6,"duration":60,"lat":51.5442798,"lng":-0.1962576,"title":"Kilburn: Kingsgate Road","address":"Kingsgate Community Centre, 107 Kingsgate Rd","postcode":"NW6 2JH","code":11407},
{"time":825,"day":5,"duration":60,"lat":51.5629819,"lng":-0.1430873,"title":"Upper Holloway: Lunchtime","address":"Board Room 1st Floor, Highgate Community Centre,","postcode":"N19 5DQ","code":11347},
{"time":660,"day":1,"duration":60,"lat":51.4739044,"lng":-0.2009067,"title":"Fulham Living Sober","address":"St Dionis Mission Hall, Parsons Green Lane, St Dionis Rd","postcode":"SW6 4UH","code":11605},
{"time":1200,"day":5,"duration":60,"lat":51.4617475,"lng":-0.0741692,"title":"East Dulwich: Step On The Green","address":"Goose Green Centre,next to St John the Evangelist Church,","postcode":"SE22 9AT","code":11450},
{"time":1080,"day":5,"duration":60,"lat":51.5638422,"lng":-0.1338327,"title":"Archway To Recovery","address":"Hargrave Hall Community Centre, Hargrave Rd","postcode":"N19 5SP","code":11340},
{"time":1080,"day":4,"duration":60,"lat":51.4730053,"lng":-0.2009134,"title":"Fulham How It Is","address":"St Dionis Church Hall, Parsons Green Lane, Fulham.","postcode":"SW6 4UH","code":11609},
{"time":780,"day":5,"duration":60,"lat":51.4730053,"lng":-0.2009134,"title":"Fulham Parsons Green It Works If You Work It","address":"St Dionis Mission Hall, Parsons Green Lane.","postcode":"SW6 4UH","code":11614},
{"time":780,"day":2,"duration":60,"lat":51.4730053,"lng":-0.2009134,"title":"Fulham Parsons Lunch","address":"St Dionis Mission Hall, Parsons Green Lane, St Dionis Rd.","postcode":"SW6 4UH","code":12341},
{"time":720,"day":2,"duration":60,"lat":51.555656,"lng":-0.176649,"title":"Hampstead Big Book Study","address":"Hampstead Community Centre, 78 High St, (Upstairs) THIS MEETING IS RUNNING 24/9/13","postcode":"NW3 1RE","code":12603},
{"time":1140,"day":2,"duration":60,"lat":51.555656,"lng":-0.176649,"title":"Hampstead FARSI speaking &#1576;&#1607; &#1580;&#1604;&#1587;&#1607; &#1601;&#1575;&#1585;&#1587;&#1740; &#1586;&#1576;&#1575;&#1606;&#1575;&#1606;  &#1604;&#1606;&#1583;&#1606; &#1582;&#1608;&#1588; &#1570;&#1605;&#1583;&#1740;&#1583;.","address":"Hampstead Community Centre, 78 Hampstead High St, 2nd Floor.","postcode":"NW3 1RE","code":13286},
{"time":1110,"day":6,"duration":75,"lat":51.555656,"lng":-0.176649,"title":"Hampstead Meditation","address":"Hampstead Community Centre, 78 Hampstead High Street","postcode":"NW3 1RE","code":13651},
{"time":720,"day":1,"duration":60,"lat":51.555656,"lng":-0.176649,"title":"Hampstead Midday Reflections","address":"Hampstead Community Centre, Hampstead High St.","postcode":"NW3 1RE","code":11387},
{"time":630,"day":2,"duration":60,"lat":51.555656,"lng":-0.176649,"title":"Hampstead Emotional Sobriety","address":"Hampstead Community Centre, 78 Hampstead High St,","postcode":"NW3 1RE","code":11388},
{"time":720,"day":3,"duration":60,"lat":51.555656,"lng":-0.176649,"title":"Hampstead Meditation","address":"Hampstead Community Centre, Hampstead High St, (Upstairs) ","postcode":"NW3 1RE","code":11397},
{"time":1020,"day":0,"duration":60,"lat":51.555656,"lng":-0.176649,"title":"Hampstead Women","address":"Top Floor, Hampstead Community Centre, High St (Entrance in indoor market & sharp turn right & upstairs).","postcode":"NW3 1RE","code":11394},
{"time":750,"day":4,"duration":60,"lat":51.460285,"lng":-0.179634,"title":"Battersea: St John's Hill Newcomers","address":"St John's Therapy Centre, St John's Hill, Battersea. ","postcode":"SW11 1SW","code":12822},
{"time":1200,"day":5,"duration":60,"lat":51.518925,"lng":-0.218246,"title":"Ladbroke Grove","address":"Parish Room, St Helens Church, St Helens Gardens,","postcode":"W10 6NT","code":11664},
{"time":1200,"day":0,"duration":60,"lat":51.518925,"lng":-0.218246,"title":"Kensington Illness In Recovery","address":"Parish Room, St Helens Church, St Helens Gardens, North","postcode":"W10 6NT","code":11665},
{"time":750,"day":2,"duration":90,"lat":51.4594585,"lng":-0.076612,"title":"East Dulwich Newcomers","address":"Christ Church, 263 Barry Road, East Dulwich. ","postcode":"SE22 0JT","code":11448},
{"time":1200,"day":5,"duration":60,"lat":51.4952999,"lng":-0.2181443,"title":"Hammersmith: Brook Green","address":"Holy Trinity Church, Parish Centre, Brook Green","postcode":"W6 7BL","code":11737},
{"time":1140,"day":6,"duration":60,"lat":51.5189535,"lng":-0.2183744,"title":"Ladbroke Grove","address":"The Den, St Helens Church, St Helens Gdns, (entrance in","postcode":"W10 6NT","code":11666},
{"time":1020,"day":6,"duration":60,"lat":51.5652606,"lng":-0.1269067,"title":"Holloway: St Gabriels","address":"St Gabriels Community Cntr, Hatchard Rd, off Marlborough Rd.","postcode":"N19 4NG","code":11348},
{"time":1080,"day":4,"duration":60,"lat":51.5652606,"lng":-0.1269067,"title":"Upper Holloway: St Gabriels","address":"St Gabriels Community Centre, Hatchard Rd,","postcode":"N19 4NG","code":11345},
{"time":750,"day":6,"duration":60,"lat":51.4702734,"lng":-0.2000581,"title":"Fulham Beginners","address":"All Saints, 70a Fulham High Street","postcode":"SW6 3LG","code":13720},
{"time":690,"day":6,"duration":60,"lat":51.5552141,"lng":-0.1816595,"title":"Hampstead Heath","address":"The Crypt Room, Hampstead Parish Church (St Johns),","postcode":"NW3 6UU","code":11393},
{"time":1140,"day":3,"duration":60,"lat":51.555214,"lng":-0.18166,"title":"Hampstead Living Sober","address":"Parish Church of St John at Hampstead, Church Row,","postcode":"NW3 6UU","code":11391},
{"time":1170,"day":0,"duration":90,"lat":51.555214,"lng":-0.18166,"title":"Hampstead","address":"Parish Church of St John at Hampstead,  Church Row.","postcode":"NW3 6UU","code":11395},
{"time":1170,"day":2,"duration":60,"lat":51.4486577,"lng":-0.1265447,"title":"London Brixton Hill Big Book","address":"All Saints Church, 250 Lyham Rd, Clapham Park","postcode":"SW2 5NP","code":12323},
{"time":1200,"day":1,"duration":60,"lat":51.566102,"lng":-0.134591,"title":"Archway: Sobriety Unlimited Step","address":"Archway Methodist Church, Archway Close, (opposite","postcode":"N19 3TD","code":11341},
{"time":1200,"day":1,"duration":60,"lat":51.4760267,"lng":-0.0474598,"title":"New Cross Gate","address":"All Saints Community Centre, 105 New Cross Rd","postcode":"SE14 5DJ","code":11429},
{"time":1170,"day":4,"duration":90,"lat":51.531364,"lng":-0.0402485,"title":"Dr Silkworth's Big Book Study","address":"Guardian Angels Church (rear entrance), 377 Mile End Rd ","postcode":"E3 4QS","code":11254},
{"time":1170,"day":2,"duration":60,"lat":51.531364,"lng":-0.040248,"title":"London Bow Victoria Park Step & Tradition","address":"Victoria Park Baptist Church, 186 Grove Rd.","postcode":"E3 5TG","code":12802},
{"time":1200,"day":3,"duration":60,"lat":51.4584553,"lng":-0.18283,"title":"Wandsworth","address":"St Mary Magdalen Church, 96 Northside, Wandsworth Common","postcode":"SW18 2QU","code":11560},
{"time":1140,"day":2,"duration":60,"lat":51.464623,"lng":-0.059853,"title":"Nunhead  First Stage Beginners","address":"66 Nunhead Lane.","postcode":"SE15 3QE","code":13077},
{"time":930,"day":0,"duration":60,"lat":51.5673458,"lng":-0.1387106,"title":"Highgate Step","address":"St Josephs Priory, Highgate Hill.  Tube: Archway. Bus 210.","postcode":"N19 5NE","code":11343},
{"time":1110,"day":0,"duration":60,"lat":51.5673458,"lng":-0.1387106,"title":"Highgate: Steps 3-7-11","address":"St Joseph's Catholic Church, Highgate Hill ","postcode":"N19 5NE","code":11344},
{"time":420,"day":5,"duration":60,"lat":51.447986,"lng":-0.148793,"title":"Balham & Eggs","address":"Salvation Army Church, 38 Balham High Rd.","postcode":"SW12 9AH","code":13084},
{"time":420,"day":3,"duration":60,"lat":51.447986,"lng":-0.148793,"title":"Balham We Are Not Saints","address":"Salvation Army Church, 38 Balham High Rd.","postcode":"SW12 9AH","code":13085},
{"time":420,"day":1,"duration":60,"lat":51.447977,"lng":-0.148807,"title":"Balham Monday Morning Meditation","address":"Salvation Army Church, 38 Balham High St ","postcode":"SW12 9AH","code":13456},
{"time":630,"day":0,"duration":75,"lat":51.483559,"lng":-0.2177667,"title":"Fulham Newcomer Focus","address":"Bishop Creighton House, 378 Lillie Rd","postcode":"SW6 7PH","code":11612},
{"time":1200,"day":4,"duration":60,"lat":51.483559,"lng":-0.2177667,"title":"Fulham","address":"Bishop Creighton House, 378 Lillie Rd.","postcode":"SW6 7PH","code":11610},
{"time":1170,"day":2,"duration":60,"lat":51.483559,"lng":-0.2177667,"title":"Fulham Discussion","address":"Bishop Creighton House, 378 Lillie Rd","postcode":"SW6 7PH","code":11606},
{"time":1140,"day":4,"duration":60,"lat":51.567614,"lng":-0.112698,"title":"Finsbury Park Faith Without Works","address":"St Mellitus, The Presbytery, Tollington Park.","postcode":"N4 3AG","code":13324},
{"time":1200,"day":5,"duration":60,"lat":51.540512,"lng":-0.0452489,"title":"Hackney: Step & Tradition","address":"St John of Jerusalem Church, Lauriston Rd.","postcode":"E9 7DH","code":11265},
{"time":1140,"day":0,"duration":75,"lat":51.4562696,"lng":-0.0708012,"title":"East Dulwich 3rd & 11th Step","address":"East Dulwich Community Centre, 46-50 Darrell Rd","postcode":"SE22 9NL","code":11451},
{"time":1170,"day":1,"duration":60,"lat":51.4891226,"lng":-0.223731,"title":"Hammersmith","address":"Tenants Association Hall, Peabody Estate","postcode":"W6 9PR","code":14103},
{"time":630,"day":6,"duration":60,"lat":51.4750149,"lng":-0.2147301,"title":"Fulham: Child Friendly","address":"St Etheldreda's Church Hall, Fulham Palace Rd, (entrance in","postcode":"SW6 6JF","code":11611},
{"time":1170,"day":2,"duration":60,"lat":51.5359079,"lng":-0.2192121,"title":"Kensal Rise How It Works Open","address":"Church of the Transfiguration, Chamberlayne Rd, Kensal Rise, (entrance in Wrentham Ave), nr Kensal Rise Stn. ","postcode":"NW10 3HT","code":11375},
{"time":1200,"day":5,"duration":60,"lat":51.563419,"lng":-0.079197,"title":"Stoke Newington: Back To Basics","address":"Our Lady of Good Counsel Church Hall, Bouverie Rd,","postcode":"N16 0AJ","code":11336},
{"time":1170,"day":0,"duration":75,"lat":51.563419,"lng":-0.079197,"title":"Stoke Newington Feelings","address":"Our Lady of Good Counsel Church Hall, Bouverie Rd, off","postcode":"N16 0AJ","code":11337},
{"time":1200,"day":0,"duration":60,"lat":51.5505919,"lng":-0.0522307,"title":"Clapton Complete Big Book","address":"St John at Hackney, Lower Clapton Rd. ","postcode":"E5 0PD","code":11258},
{"time":1200,"day":3,"duration":90,"lat":51.50512,"lng":-0.231259,"title":"Shepherds Bush","address":"The Old Coach House, 103A Devonport Rd.","postcode":"W12 8PB","code":11681},
{"time":1170,"day":0,"duration":90,"lat":51.505032,"lng":-0.231338,"title":"Shepherds Bush","address":"The Coach House, 103A Devonport Road.","postcode":"W12 8PB","code":13595},
{"time":495,"day":1,"duration":60,"lat":51.500238,"lng":-0.23145,"title":"Bradmore Park Start the Week","address":"Grove Neighbourhood Centre, 7 Bradmore Park Road.","postcode":"W6 0DT","code":13645},
{"time":1185,"day":6,"duration":60,"lat":51.4742499,"lng":-0.0379885,"title":"New Cross Gate Step & Tradition","address":"St James Hatcham Church, St James's","postcode":"SE14 6AD","code":11431},
{"time":1215,"day":3,"duration":60,"lat":51.4677892,"lng":-0.0447448,"title":"London New Cross Gate Newcomers","address":"Telegraph Hill Centre, (next to St Catherine's Church), Kitto Rd. ","postcode":"SE14 5TY","code":11430},
{"time":1200,"day":1,"duration":60,"lat":51.5261769,"lng":-0.0274677,"title":"Bow  Newcomers","address":"Basement, Bow Methodist Church, 3 Merchant St,","postcode":"E3 4LY","code":11252},
{"time":1200,"day":4,"duration":60,"lat":51.5581889,"lng":-0.1943657,"title":"Hampstead","address":"St Lukes, Kidderpore Ave.","postcode":"NW3 7SU","code":11396},
{"time":1110,"day":4,"duration":60,"lat":51.5581889,"lng":-0.1943657,"title":"Hampstead: Newcomers","address":"St Lukes, Kidderpore Ave.","postcode":"NW3 7SU","code":11392},
{"time":495,"day":4,"duration":60,"lat":51.4961222,"lng":-0.2320722,"title":"Hammersmith Early Morning","address":"Grove Neighbourhood Centre, 7 Bradmore Park Rd","postcode":"W6 0DT","code":11736},
{"time":1200,"day":2,"duration":60,"lat":51.556693,"lng":-0.056817,"title":"First Clapton","address":"St James Church,through arch off Lower","postcode":"E5 8DJ","code":11257},
{"time":990,"day":1,"duration":60,"lat":51.474144,"lng":-0.035401,"title":"New Cross Gate Goldsmiths","address":"Goldsmith University, Lewisham Way. (Ask at Receiption for Room No.)","postcode":"SE14 6NW","code":13285},
{"time":1140,"day":1,"duration":60,"lat":51.5506338,"lng":-0.0460987,"title":"Hackney Homerton Hospital","address":"Mental Health Unit, Board Room 1st Flr, East Wing Entrance","postcode":"E9 6SR","code":11264},
{"time":1110,"day":4,"duration":60,"lat":51.4496106,"lng":-0.0732695,"title":"Dulwich Step 11 Meditation","address":"Christ Church, 263 Barry Rd","postcode":"SE22 0JT","code":11449},
{"time":1170,"day":6,"duration":60,"lat":51.4925258,"lng":-0.2333061,"title":"Hammersmith (formerly Brook Green) Step","address":"Rivercourt Methodist Church, King St/Rivercourt Rd","postcode":"W6 9JT","code":11738},
{"time":600,"day":6,"duration":60,"lat":51.4407467,"lng":-0.1482076,"title":"Balham Hour Step","address":"Balham Community Centre, corner of Byrne Rd & Bedford Hill.","postcode":"SW12 9HE","code":12322},
{"time":1200,"day":3,"duration":60,"lat":51.4407467,"lng":-0.1482076,"title":"Balham: Midweek","address":"The Basement, Family Centre, 91 Bedford Hill.","postcode":"SW12 9HE","code":11527},
{"time":1200,"day":5,"duration":90,"lat":51.511322,"lng":-0.018972,"title":"Poplar Language Of The Heart","address":"The Emery Hall, The Queen Victoria Seamen's Rest, 121-131 East India Dock Rd.","postcode":"E14 6DF","code":12343},
{"time":1170,"day":2,"duration":60,"lat":51.498561,"lng":-0.2369771,"title":"Hammersmith Bradmore","address":"Church of the Holy Innocents, Paddenswick Rd","postcode":"W6 0UB","code":11735},
{"time":1200,"day":2,"duration":60,"lat":51.5013202,"lng":-0.2374758,"title":"Pierwsza Grupa Polska  (1st Polish)","address":"The Basement, Andrzeja Boboli Polish Catholic Church,","postcode":"W12 9JF","code":11687},
{"time":660,"day":0,"duration":60,"lat":51.4817072,"lng":-0.0252681,"title":"Deptford Topic & Discussion","address":"Armada Court Community Hall, 21 McMillan St","postcode":"SE8 3EZ","code":11472},
{"time":1200,"day":4,"duration":60,"lat":51.4404871,"lng":-0.1557005,"title":"Balham Jest Sposob (there Is A Way- Polish Spkn)","address":"Christ the King Polish RC Church, 232-234 Balham High Rd.","postcode":"SW17 7AW","code":11552},
{"time":1155,"day":4,"duration":60,"lat":51.4802128,"lng":-0.0251742,"title":"Deptford: Step & Tradition","address":"Armada Court Community Hall, 21 McMillan St","postcode":"SE8 3EZ","code":11471},
{"time":825,"day":3,"duration":60,"lat":51.511673,"lng":-0.0158154,"title":"Poplar  Discussion","address":"Salvation Army, Kerbey St, (off East India Dock Rd).","postcode":"E14 6AJ","code":11229},
{"time":1200,"day":2,"duration":60,"lat":51.511673,"lng":-0.015815,"title":"Poplar","address":"Salvation Army, Kerbey St, off East India Dock Rd. Bus: 15, 115, D6. DLR: All Saints.","postcode":"E14 6AJ","code":11228},
{"time":1200,"day":4,"duration":90,"lat":51.5115983,"lng":-0.015717,"title":"Poplar Chapter Five","address":"The Salvation Army, Local Community Centre, Kerbey St","postcode":"E14 6AJ","code":11230},
{"time":720,"day":1,"duration":60,"lat":51.5044312,"lng":-0.0145882,"title":"Canary Wharf: Lunchtime","address":"Prayer Room, 2 Churchill Place, below Barclays Tower &","postcode":"E14 5RB","code":11222},
{"time":1050,"day":2,"duration":60,"lat":51.5044312,"lng":-0.0145882,"title":"Canary Wharf: As Bill Sees It","address":"Prayer Room, 2 Churchill Place, below Barclays Tower &","postcode":"E14 5RB","code":11223},
{"time":420,"day":3,"duration":60,"lat":51.5044312,"lng":-0.0145882,"title":"Canary Wharf: Early Risers","address":"Prayer Room, 2 Churchill Place, below Barclays Tower &","postcode":"E14 5RB","code":11224},
{"time":1050,"day":5,"duration":60,"lat":51.5044312,"lng":-0.0145882,"title":"Canary Wharf Step & Tradition","address":"Prayer Room, 2 Churchill Place, below Barclays Tower &","postcode":"E14 5RB","code":11225},
{"time":1200,"day":2,"duration":60,"lat":51.55252,"lng":-0.216429,"title":"Willesden Vision for You (Wizja dla Ciebie) Polish","address":"Spikers, 180 Walm Lane, Chapel Priests Jesuits.","postcode":"NW2 3AX","code":13140},
{"time":1200,"day":1,"duration":90,"lat":51.4380452,"lng":-0.1628347,"title":"Tooting Open","address":"Holy Trinity Church Hall, junction Trinity Rd/Trinity Cres,","postcode":"SW17 7SQ","code":11554},
{"time":1200,"day":5,"duration":60,"lat":51.5799771,"lng":-0.1176562,"title":"Crouch End: Step","address":"Upstairs, Union Church & Community Centre, corner Weston Pk/","postcode":"N8 9PX","code":11362},
{"time":1170,"day":0,"duration":90,"lat":51.5799771,"lng":-0.1176562,"title":"Crouch End 12 Promises","address":"Upstairs,Union Church & Community Centre, corner Weston Park/Ferme Park Rd, (entrance on West Park). ","postcode":"N8 9PX","code":12327},
{"time":1200,"day":4,"duration":90,"lat":51.436997,"lng":-0.161366,"title":"Balham & Tooting","address":"Holy Trinity Church, Trinity Rd, Tooting Bec.","postcode":"SW17 7RH","code":11558},
{"time":1200,"day":1,"duration":60,"lat":51.5028613,"lng":-0.2454995,"title":"Shepherds Bush Askew Road","address":"St Stephen's Social Club, 3-5 Gayford Rd","postcode":"W12 9BY","code":11680},
{"time":630,"day":5,"duration":60,"lat":51.560376,"lng":-0.209576,"title":"Cricklewood Living Sober Child Friendly","address":"St Agnes Centre, Gillingham Rd (entrance in car park behind the church)","postcode":"NW2 1HR","code":13560},
{"time":1200,"day":5,"duration":60,"lat":51.4356966,"lng":-0.1575768,"title":"Tooting Bec: Step","address":"St Anselms Church Hall, Tooting Bec Rd, (opp Tube - metal","postcode":"SW17 8BS","code":11559},
{"time":1200,"day":5,"duration":60,"lat":51.560725,"lng":-0.21025,"title":"Cricklewood","address":"St Agnes Centre, Gillingham Rd, off Cricklewood Lane.","postcode":"NW2 1RL","code":11382},
{"time":1200,"day":1,"duration":60,"lat":51.4605113,"lng":-0.220133,"title":"Putney: Polish","address":"St John's Hall, next to Polish Church, Ravenna Rd.","postcode":"SW15 6AW","code":11534},
{"time":1200,"day":5,"duration":60,"lat":51.4623569,"lng":-0.2232426,"title":"Putney: Women","address":"Putney Methodist Church, corner of Gwendolen Ave/","postcode":"SW15 6SN","code":11537},
{"time":780,"day":4,"duration":60,"lat":51.4602512,"lng":-0.0338672,"title":"Brockley: Reflections","address":"St Andrews United Reformed Church, Wickham Rd","postcode":"SE4 2SA","code":11462},
{"time":855,"day":6,"duration":60,"lat":51.57729,"lng":-0.082769,"title":"Haringey Newcomers & Freethinkers","address":"Weights & Measures Office, 590 Seven Sisters Rd. ","postcode":"N15 6HR","code":13051},
{"time":1200,"day":2,"duration":60,"lat":51.4360255,"lng":-0.1676637,"title":"Tooting Springfield","address":"Recovery College, Springfield Hospital, Glenburnie Rd,","postcode":"SW17 7DJ","code":11555},
{"time":1080,"day":0,"duration":60,"lat":51.4360255,"lng":-0.1676637,"title":"Tooting Springfield","address":"Recovery College, Building 28, Springfield Hospital,","postcode":"SW17 7DJ","code":11557},
{"time":1080,"day":3,"duration":60,"lat":51.542836,"lng":-0.235526,"title":"Willesden A New Beginning","address":"Willesden Centre for Health and Care, Harlesden Road.","postcode":"NW10 3RY","code":13384},
{"time":1200,"day":2,"duration":60,"lat":51.4753229,"lng":-0.0167741,"title":"Greenwich Road To Recovery","address":"The Village Church, 10 Devonshire Drive","postcode":"SE10 8LA","code":11419},
{"time":1200,"day":5,"duration":90,"lat":51.5806628,"lng":-0.0921817,"title":"Tottenham St Ann's Hospital","address":"Lecture Theatre, St Ann's Hospital, St Ann's Rd,","postcode":"N15 3TH","code":11334},
{"time":1200,"day":4,"duration":90,"lat":51.571253,"lng":-0.196561,"title":"Golders Green ","address":"Trinity Methodist Church, Hodford Rd (side entrance).","postcode":"NW11 8EG","code":11379},
{"time":1200,"day":6,"duration":60,"lat":51.5712196,"lng":-0.1967499,"title":"Golders Green: Step","address":"Trinity Church, side entrance, Hodford Rd. Tube:Golders Green","postcode":"NW11 8EG","code":11380},
{"time":1200,"day":1,"duration":60,"lat":51.5712196,"lng":-0.1967499,"title":"Golders Green","address":"Trinity Church, side entrance,Hodford Rd. Tube:Golders Green.","postcode":"NW11 8EG","code":11378},
{"time":1170,"day":4,"duration":60,"lat":51.5763847,"lng":-0.0730651,"title":"Stamford Hill: (Polish) Krokus","address":"Triangle Children, Young People & Community Centre, 91-93 St Ann's Road","postcode":"N15 6NU","code":11332},
{"time":1200,"day":2,"duration":60,"lat":51.555735,"lng":-0.224482,"title":"Cricklewood","address":"Cricklewood Baptist Church, 2 Sneyd Rd, corner of Anson Rd","postcode":"NW2 6AN","code":11381},
{"time":795,"day":3,"duration":75,"lat":51.45938,"lng":-0.2255895,"title":"Putney Lunch Step Discussion","address":"Our Lady of Pity, St Simons Church Hall, Hazlewell Rd.","postcode":"SW15 6LU","code":11536},
{"time":1200,"day":0,"duration":90,"lat":51.4751549,"lng":-0.2412492,"title":"London Barnes","address":"Melville Rms, St Mary's Church, Church Rd, (enter by main gate, rooms are to left side of church). ","postcode":"SW13 9HL","code":11532},
{"time":780,"day":5,"duration":60,"lat":51.4751549,"lng":-0.2412492,"title":"Barnes: Lunchtime Step","address":"Melville Rooms, St Mary's Parish Church, Church Rd.","postcode":"SW13 9HL","code":11530},
{"time":1200,"day":1,"duration":70,"lat":51.4892915,"lng":-0.0063439,"title":"Isle Of Dogs: As Bill Sees It","address":"Christ Church Crypt, Christ Church, Manchester Rd.","postcode":"E14 3BN","code":11227},
{"time":1185,"day":5,"duration":60,"lat":51.476553,"lng":-0.012948,"title":"London Greenwich Recovery","address":"22 Greenwich South St, Greenwich, London","postcode":"SE10 8TY","code":11427},
{"time":1020,"day":0,"duration":60,"lat":51.476553,"lng":-0.0129477,"title":"Greenwich Step 11","address":"St Mark's Church, 22 Greenwich South St, (side entrance in","postcode":"SE10 8TY","code":11421},
{"time":1170,"day":0,"duration":60,"lat":51.476553,"lng":-0.0129477,"title":"London Greenwich Recovery & Fellowship","address":"St Mark's Church, 22 Greenwich South St, (side entrance in","postcode":"SE10 8TY","code":11422},
{"time":1200,"day":2,"duration":60,"lat":51.4810446,"lng":-0.0100161,"title":"Greenwich Big Book Discussion","address":"St Alfeges Church Hall, Greenwich Church St","postcode":"SE10 9BJ","code":11420},
{"time":1170,"day":1,"duration":60,"lat":51.4284343,"lng":-0.1322487,"title":"Streatham English Martyrs","address":"English Martyrs RC Church Hall, 2 Mitcham Lane, (between","postcode":"SW16 6NN","code":11546},
{"time":1170,"day":2,"duration":90,"lat":51.4969195,"lng":-0.2540836,"title":"Chiswick Turnham Green As Bill Sees It Newcomers","address":"St Michael & All Angels Church, Priory Ave, ","postcode":"W4 1TX","code":11724},
{"time":1170,"day":4,"duration":75,"lat":51.49692,"lng":-0.254084,"title":"Chiswick Turnham Green There is a Solution","address":"St Michaels & All Angels Church, Priory Aveune.","postcode":"W4 1TX","code":13352},
{"time":1170,"day":3,"duration":60,"lat":51.4336772,"lng":-0.078846,"title":"Dulwich Woman's Daily Reprieve","address":"St Stephen's Church, 111 College Rd, Dulwich. (Turn right out","postcode":"SE21 7HN","code":11447},
{"time":1080,"day":0,"duration":60,"lat":51.4457099,"lng":-0.042997,"title":"Forest Hill Step","address":"St Saviour's Church, 69 Brockley Rise","postcode":"SE23 1JN","code":11452},
{"time":1170,"day":2,"duration":60,"lat":51.4265402,"lng":-0.139806,"title":"Streatham Step","address":"Mount Carmel, 12 Aldrington Rd","postcode":"SW16 1TH","code":11547},
{"time":1170,"day":5,"duration":60,"lat":51.4265402,"lng":-0.139806,"title":"Streatham Mount Carmel","address":"12 Aldrington Rd.","postcode":"SW16 1TH","code":11548},
{"time":540,"day":6,"duration":60,"lat":51.4265402,"lng":-0.139806,"title":"Streatham: Breakfast Hour","address":"Mount Carmel, 12 Aldrington Rd.  Bus: 333, 57, 201.","postcode":"SW16 1TH","code":11549},
{"time":870,"day":6,"duration":90,"lat":51.4265402,"lng":-0.139806,"title":"Streatham Afternoon","address":"Mount Carmel, 12 Aldrington Rd","postcode":"SW16 1TH","code":12344},
{"time":735,"day":5,"duration":60,"lat":51.471879,"lng":-0.246501,"title":"Barnes Women's","address":"Common Rm, Methodist Church Barnes Pond, Station Rd (entrance on Station Rd).","postcode":"SW13 0NH","code":13293},
{"time":810,"day":2,"duration":90,"lat":51.4736231,"lng":-0.2482486,"title":"Barnes Freedom From Bondage","address":"Barnes Community Centre, Rose Cottage High St, (near Barnes","postcode":"SW13 9LD","code":11529},
{"time":1140,"day":3,"duration":60,"lat":51.428991,"lng":-0.169787,"title":"Tooting Broadway Newcomers Meditation","address":"Wandsworth CDAS, 1079 Garratt Lane.","postcode":"SW17 0LN","code":13567},
{"time":1200,"day":4,"duration":60,"lat":51.589214,"lng":-0.108237,"title":"Tunrpike Lane There is a Solution","address":"Shine Enterprises, 89-91 Turnpike Lane.","postcode":"N8 0DY","code":13731},
{"time":540,"day":0,"duration":60,"lat":51.4296276,"lng":-0.1737314,"title":"Earlsfield Eyeopener","address":"Tooting Leisure Centre (Studio 2), Greaves Place,","postcode":"SW17 0NE","code":11553},
{"time":1140,"day":1,"duration":60,"lat":51.428562,"lng":-0.169787,"title":"Tooting Men's Big Book Meditation","address":"Wandsworth CDAS, 1079 Garratt Lane","postcode":"SW17 0LN","code":13979},
{"time":1140,"day":1,"duration":60,"lat":51.437795,"lng":-0.054271,"title":"Forest Hill Newcomers","address":"55 Dartmouth Rd.","postcode":"SE23 3HN","code":13257},
{"time":1095,"day":5,"duration":75,"lat":51.4933178,"lng":-0.2598105,"title":"Chiswick Women's Happy Hour","address":"Chiswick Health Centre, Fishers Lane, rear of Lloyds Bank, Chiswick High Rd.","postcode":"W4 1RX","code":11725},
{"time":930,"day":0,"duration":60,"lat":51.4907861,"lng":-0.2600942,"title":"Chiswick","address":"1st Floor, New Parish Hall, opposite Catholic Church &","postcode":"W4 2AE","code":11726},
{"time":930,"day":4,"duration":60,"lat":51.5474044,"lng":-0.2469595,"title":"Willesden Freedom & Unity","address":"Addaction Brent, 97 Cobbold Rd, Willesden","postcode":"NW10 9SU","code":11377},
{"time":1140,"day":2,"duration":60,"lat":51.582059,"lng":-0.190547,"title":"Sober in the Suburbs Newcomers","address":"Friends Meeting House, 17 North Square, Hampstead Garden Suburb.","postcode":"NW11 7AD","code":12900},
{"time":810,"day":5,"duration":60,"lat":51.5906957,"lng":-0.1487281,"title":"Muswell Hill Women's Big Book (Child-Friendly)","address":"Birchwood Centre, 171 Fortis Green Rd","postcode":"N10 3BG","code":11320},
{"time":600,"day":6,"duration":60,"lat":51.5906957,"lng":-0.1487281,"title":"Muswell Hill: Sober On Saturday (sos)","address":"Birchwood Centre, 171 Fortis Green Rd","postcode":"N10 3BG","code":11321},
{"time":780,"day":4,"duration":75,"lat":51.443364,"lng":-0.218217,"title":"Wimbledon Lunchtime As Bill Sees It","address":"St Pauls Community Centre, 23 Inner Park Rd","postcode":"SW19 6ED","code":11566},
{"time":1200,"day":0,"duration":60,"lat":51.4435709,"lng":-0.2190505,"title":"Wimbledon St Pauls","address":"St Pauls Community Centre, Inner Park Rd.","postcode":"SW19 6ED","code":11574},
{"time":1200,"day":3,"duration":60,"lat":51.5164639,"lng":0.0091404,"title":"Canning Town Mayflower At Anchor House","address":"Anchor House, 81 Barking Rd, (opp Rathbone Market).","postcode":"E16 4HB","code":11235},
{"time":1140,"day":4,"duration":60,"lat":51.5164639,"lng":0.0091404,"title":"Canning Town: The Path To Freedom","address":"Anchor House, Barking Rd.","postcode":"E16 4HB","code":11236},
{"time":1200,"day":6,"duration":60,"lat":51.5164639,"lng":0.0091404,"title":"Canning Town","address":"Anchor House, 81 Barking Rd, (opp Rathbone Market).","postcode":"E16 4HB","code":11237},
{"time":660,"day":0,"duration":90,"lat":51.5164639,"lng":0.0091404,"title":"Canning Town Mayflower Morning","address":"Anchor House, 81 Barking Rd","postcode":"E16 4HB","code":11238},
{"time":1170,"day":0,"duration":60,"lat":51.5164639,"lng":0.0091404,"title":"Canning Town: Sunday Sober","address":"Anchor House, 81 Barking Rd, opp Rathbone Market. Tube/DLR:","postcode":"E16 4HB","code":11239},
{"time":1110,"day":4,"duration":60,"lat":51.426719,"lng":-0.175746,"title":"Tooting St George's Hospital","address":"Seminar Room, 2nd Floor, St James's Wing, St George's Hospital, Blackshaw Rd. ","postcode":"SW17 0QT","code":13789},
{"time":1170,"day":6,"duration":90,"lat":51.4240186,"lng":-0.162376,"title":"Tooting Amen Corner","address":"St Boniface Youth Club (upstairs rm) down alleyway between 165 & 167 Mitcham Rd.","postcode":"SW17 9PG","code":11556},
{"time":1140,"day":5,"duration":60,"lat":51.4706048,"lng":-0.2527787,"title":"Barnes Practise These Steps","address":"St Michael & All Angels Community Centre (entrance from Charles St)","postcode":"SW13 0NX","code":11531},
{"time":780,"day":6,"duration":60,"lat":51.4562392,"lng":-0.0161763,"title":"Lewisham Step","address":"St Mary's Community Centre, Ladywell Rd.  Train: Ladywell.","postcode":"SE13 7UW","code":12338},
{"time":720,"day":3,"duration":60,"lat":51.4561333,"lng":-0.0152309,"title":"Lewisham Discussion","address":"Crypt, St Mary the Virgin Church, 346 Lewisham High St","postcode":"SE13 6LE","code":11426},
{"time":720,"day":1,"duration":90,"lat":51.5391391,"lng":0.0025538,"title":"Stratford Lunch","address":"Methodist Centre, Bryant St","postcode":"E15 4RU","code":11231},
{"time":1110,"day":3,"duration":60,"lat":51.5941373,"lng":-0.145152,"title":"Muswell Hill Meditation","address":"Church Hall, Our Lady of Muswell RC Church, 1 Colney Hatch Lane","postcode":"N10 1PN","code":12340},
{"time":1200,"day":4,"duration":90,"lat":51.4431815,"lng":-0.0321685,"title":"Catford","address":"Trinity United Reformed Church, Stanstead Rd, (corner with Faversham Rd)","postcode":"SE6 4XE","code":11468},
{"time":1080,"day":1,"duration":60,"lat":51.4965604,"lng":-0.2680716,"title":"Chiswick Sober Feet","address":"Acton Green Church, 21-23 Cunnington St, Tube: Chiswick Park","postcode":"W4 5ER","code":11723},
{"time":1140,"day":5,"duration":60,"lat":51.594613,"lng":-0.146216,"title":"Muswell Hill Big Book Step","address":"Methodist Church (Mulberry Room), 28 Pages Lane.","postcode":"N10 1PP","code":13523},
{"time":1110,"day":4,"duration":60,"lat":51.506165,"lng":-0.2693358,"title":"Acton: Into Action In Acton Step & Tadition","address":"Emmaus House, 1 Berrymead Gardens, off High St","postcode":"W3 8AA","code":11721},
{"time":660,"day":6,"duration":60,"lat":51.506165,"lng":-0.2693358,"title":"Acton Newcomers Early Steps","address":"Emmaus House, 1 Berrymead Gardens, off Acton High St.","postcode":"W3 8AA","code":11722},
{"time":840,"day":4,"duration":60,"lat":51.506165,"lng":-0.269336,"title":"Acton Afternoon (formerly St Luke's)","address":"Emmaus House, 3 Berrymead Gardens","postcode":"W3 8AA","code":11682},
{"time":840,"day":6,"duration":60,"lat":51.506165,"lng":-0.269336,"title":"Acton (formerly St Luke's)","address":"Emmaus House, 1 Berrymede Gardens, off Acton High St.","postcode":"W3 8AA","code":11684},
{"time":1050,"day":0,"duration":60,"lat":51.506165,"lng":-0.269336,"title":"Acton Living Sober with the Steps","address":"Emmaus House, 1 Berrymead Gardens, Acton","postcode":"W3 8AA","code":12600},
{"time":630,"day":2,"duration":60,"lat":51.5065502,"lng":-0.2695049,"title":"Acton Follow Our Path","address":"Emmaus House, 1 Berrymead Gardens (off High St)","postcode":"W3 8AA","code":14041},
{"time":1080,"day":2,"duration":60,"lat":51.4516857,"lng":-0.0175827,"title":"Lewisham Newcomers","address":"CRI Building, 410 Lewisham High St","postcode":"SE13 6LJ","code":12337},
{"time":1200,"day":4,"duration":90,"lat":51.5958046,"lng":-0.1334758,"title":"Muswell Hill Step","address":"Cufos Community Centre, The Avenue, (end of Dukes Ave)","postcode":"N10 2QE","code":11319},
{"time":1200,"day":2,"duration":60,"lat":51.4292195,"lng":-0.0604467,"title":"Sydenham: Step","address":"The Grove Centre, 2 Jews Walk.","postcode":"SE26 6PL","code":11456},
{"time":1200,"day":2,"duration":60,"lat":51.4624783,"lng":-0.2510507,"title":"Roehampton Priory","address":"Chapel Room, The Priory Hospital, Priory Lane.","postcode":"SW15 5JJ","code":11541},
{"time":1215,"day":3,"duration":60,"lat":51.4624783,"lng":-0.2510507,"title":"Roehampton: As Bill Sees It","address":"Chapel Room, The Priory Hospital, Priory Lane.","postcode":"SW15 5JJ","code":11542},
{"time":1170,"day":4,"duration":90,"lat":51.506142,"lng":-0.270752,"title":"Acton Big Book","address":"Michael  Flanders Centre, Church Rd","postcode":"W3 8PP","code":14115},
{"time":1200,"day":5,"duration":90,"lat":51.5917877,"lng":-0.1748144,"title":"East Finchley","address":"Holy Trinity Church, Church Lane","postcode":"N2 0TH","code":11349},
{"time":1140,"day":3,"duration":60,"lat":51.4504411,"lng":-0.2389315,"title":"Roehampton Womens Meditation","address":"St Mary's Convent (Blue door), Roehampton High Street, Roehampton Village","postcode":"SW15 4HJ","code":14096},